{
  "done_prefs": [
    "aomori",
    "iwate",
    "akita",
    "chiba",
    "ishikawa",
    "ibaraki",
    "toyama",
    "kanagawa",
    "niigata",
    "shizuoka",
    "tochigi",
    "fukui",
    "gunma",
    "nagano",
    "yamagata",
    "tokyo",
    "yamanashi",
    "aichi",
    "hokkaido",
    "miyagi",
    "fukushima",
    "saitama"
  ],
  "stores": [
    {
      "name": "マルハン旭川永山店",
      "url": "https://www.p-world.co.jp/hokkaido/maruhan-asahikawa-n.htm",
      "address": "",
      "lat": 43.8020078076984,
      "lng": 142.426739895389,
      "source": "P-WORLD",
      "is_grand_open": false,
      "open_date": "",
      "machines": {
        "total": 0,
        "pachinko": 0,
        "pachinko_4en": 0,
        "pachinko_1en": 0,
        "slot": 0,
        "slot_20en": 0,
        "slot_5en": 0
      },
      "pref": "北海道"
    },
    {
      "name": "ブルーバードネオ",
      "url": "https://www.p-world.co.jp/hokkaido/bluebirdneo.htm",
      "address": "",
      "lat": 42.8741388888889,
      "lng": 141.586472222222,
      "source": "P-WORLD",
      "is_grand_open": false,
      "open_date": "",
      "machines": {
        "total": 0,
        "pachinko": 0,
        "pachinko_4en": 0,
        "pachinko_1en": 0,
        "slot": 0,
        "slot_20en": 0,
        "slot_5en": 0
      },
      "pref": "北海道"
    },
    {
      "name": "イーグルスクエア帯広店",
      "url": "https://www.p-world.co.jp/hokkaido/eagle-square-obihiro.htm",
      "address": "",
      "lat": 42.9135444444444,
      "lng": 143.203675,
      "source": "P-WORLD",
      "is_grand_open": false,
      "open_date": "",
      "machines": {
        "total": 0,
        "pachinko": 0,
        "pachinko_4en": 0,
        "pachinko_1en": 0,
        "slot": 0,
        "slot_20en": 0,
        "slot_5en": 0
      },
      "pref": "北海道"
    },
    {
      "name": "パーラーハビン岩見沢店",
      "url": "https://www.p-world.co.jp/hokkaido/habiniwamizawa.htm",
      "address": "",
      "lat": 43.1917361111111,
      "lng": 141.764830555556,
      "source": "P-WORLD",
      "is_grand_open": false,
      "open_date": "",
      "machines": {
        "total": 0,
        "pachinko": 0,
        "pachinko_4en": 0,
        "pachinko_1en": 0,
        "slot": 0,
        "slot_20en": 0,
        "slot_5en": 0
      },
      "pref": "北海道"
    },
    {
      "name": "新琴似ひまわり",
      "url": "https://www.p-world.co.jp/hokkaido/shinkotoni-himawari.htm",
      "address": "",
      "lat": 43.1239963888889,
      "lng": 141.309695,
      "source": "P-WORLD",
      "is_grand_open": false,
      "open_date": "",
      "machines": {
        "total": 0,
        "pachinko": 0,
        "pachinko_4en": 0,
        "pachinko_1en": 0,
        "slot": 0,
        "slot_20en": 0,
        "slot_5en": 0
      },
      "pref": "北海道"
    },
    {
      "name": "ベガスベガス帯広北店",
      "url": "https://www.p-world.co.jp/hokkaido/vegas-obihirokita.htm",
      "address": "：帯広市西15条北1丁目2番地",
      "lat": 42.9284307952257,
      "lng": 143.182306025166,
      "source": "P-WORLD",
      "is_grand_open": false,
      "open_date": "",
      "machines": {
        "total": 0,
        "pachinko": 0,
        "pachinko_4en": 0,
        "pachinko_1en": 0,
        "slot": 0,
        "slot_20en": 0,
        "slot_5en": 0
      },
      "pref": "北海道"
    },
    {
      "name": "北見ひまわり",
      "url": "https://www.p-world.co.jp/hokkaido/kitami-himawari.htm",
      "address": "",
      "lat": 43.79545,
      "lng": 143.902233333333,
      "source": "P-WORLD",
      "is_grand_open": false,
      "open_date": "",
      "machines": {
        "total": 0,
        "pachinko": 0,
        "pachinko_4en": 0,
        "pachinko_1en": 0,
        "slot": 0,
        "slot_20en": 0,
        "slot_5en": 0
      },
      "pref": "北海道"
    },
    {
      "name": "パーラーロイヤル岩見沢店",
      "url": "https://www.p-world.co.jp/hokkaido/p-royal.htm",
      "address": "",
      "lat": 43.1849861111111,
      "lng": 141.743283888889,
      "source": "P-WORLD",
      "is_grand_open": false,
      "open_date": "",
      "machines": {
        "total": 0,
        "pachinko": 0,
        "pachinko_4en": 0,
        "pachinko_1en": 0,
        "slot": 0,
        "slot_20en": 0,
        "slot_5en": 0
      },
      "pref": "北海道"
    },
    {
      "name": "マルハン柏林台店",
      "url": "https://www.p-world.co.jp/hokkaido/maruhan-hakurindai.htm",
      "address": "",
      "lat": 42.9263277956597,
      "lng": 143.175128332353,
      "source": "P-WORLD",
      "is_grand_open": false,
      "open_date": "",
      "machines": {
        "total": 0,
        "pachinko": 0,
        "pachinko_4en": 0,
        "pachinko_1en": 0,
        "slot": 0,
        "slot_20en": 0,
        "slot_5en": 0
      },
      "pref": "北海道"
    },
    {
      "name": "マルハン恵庭店",
      "url": "https://www.p-world.co.jp/hokkaido/maruhan-eniwa.htm",
      "address": "",
      "lat": 42.8943623717621,
      "lng": 141.566115353546,
      "source": "P-WORLD",
      "is_grand_open": false,
      "open_date": "",
      "machines": {
        "total": 0,
        "pachinko": 0,
        "pachinko_4en": 0,
        "pachinko_1en": 0,
        "slot": 0,
        "slot_20en": 0,
        "slot_5en": 0
      },
      "pref": "北海道"
    },
    {
      "name": "マルハン岩内店",
      "url": "https://www.p-world.co.jp/hokkaido/maruhan-iwanai.htm",
      "address": "",
      "lat": 42.9763844114973,
      "lng": 140.50267752437,
      "source": "P-WORLD",
      "is_grand_open": false,
      "open_date": "",
      "machines": {
        "total": 0,
        "pachinko": 0,
        "pachinko_4en": 0,
        "pachinko_1en": 0,
        "slot": 0,
        "slot_20en": 0,
        "slot_5en": 0
      },
      "pref": "北海道"
    },
    {
      "name": "マルハン苗穂店",
      "url": "https://www.p-world.co.jp/hokkaido/maruhan-naebo.htm",
      "address": "",
      "lat": 43.0639783954013,
      "lng": 141.383705014054,
      "source": "P-WORLD",
      "is_grand_open": false,
      "open_date": "",
      "machines": {
        "total": 0,
        "pachinko": 0,
        "pachinko_4en": 0,
        "pachinko_1en": 0,
        "slot": 0,
        "slot_20en": 0,
        "slot_5en": 0
      },
      "pref": "北海道"
    },
    {
      "name": "マルハン函館港店",
      "url": "https://www.p-world.co.jp/hokkaido/maruhan-hakodate-m.htm",
      "address": "",
      "lat": 41.8034147222222,
      "lng": 140.721866666667,
      "source": "P-WORLD",
      "is_grand_open": false,
      "open_date": "",
      "machines": {
        "total": 0,
        "pachinko": 0,
        "pachinko_4en": 0,
        "pachinko_1en": 0,
        "slot": 0,
        "slot_20en": 0,
        "slot_5en": 0
      },
      "pref": "北海道"
    },
    {
      "name": "マルハン白石店",
      "url": "https://www.p-world.co.jp/hokkaido/maruhan-shiroishi.htm",
      "address": "",
      "lat": 43.0397513188831,
      "lng": 141.440156986497,
      "source": "P-WORLD",
      "is_grand_open": false,
      "open_date": "",
      "machines": {
        "total": 0,
        "pachinko": 0,
        "pachinko_4en": 0,
        "pachinko_1en": 0,
        "slot": 0,
        "slot_20en": 0,
        "slot_5en": 0
      },
      "pref": "北海道"
    },
    {
      "name": "マルハン根室店",
      "url": "https://www.p-world.co.jp/hokkaido/maruhan-nemuro.htm",
      "address": "",
      "lat": 43.3192438531349,
      "lng": 145.566828617383,
      "source": "P-WORLD",
      "is_grand_open": false,
      "open_date": "",
      "machines": {
        "total": 0,
        "pachinko": 0,
        "pachinko_4en": 0,
        "pachinko_1en": 0,
        "slot": 0,
        "slot_20en": 0,
        "slot_5en": 0
      },
      "pref": "北海道"
    },
    {
      "name": "マルハン札幌北店",
      "url": "https://www.p-world.co.jp/hokkaido/maruhan-sapporokita.htm",
      "address": "",
      "lat": 43.1094675,
      "lng": 141.358561666667,
      "source": "P-WORLD",
      "is_grand_open": false,
      "open_date": "",
      "machines": {
        "total": 0,
        "pachinko": 0,
        "pachinko_4en": 0,
        "pachinko_1en": 0,
        "slot": 0,
        "slot_20en": 0,
        "slot_5en": 0
      },
      "pref": "北海道"
    },
    {
      "name": "マルハン函館大門店",
      "url": "https://www.p-world.co.jp/hokkaido/maruhan-daimon.htm",
      "address": "",
      "lat": 41.7694722222222,
      "lng": 140.734666666667,
      "source": "P-WORLD",
      "is_grand_open": false,
      "open_date": "",
      "machines": {
        "total": 0,
        "pachinko": 0,
        "pachinko_4en": 0,
        "pachinko_1en": 0,
        "slot": 0,
        "slot_20en": 0,
        "slot_5en": 0
      },
      "pref": "北海道"
    },
    {
      "name": "マルハン中標津店",
      "url": "https://www.p-world.co.jp/hokkaido/maruhan-nakashibetsu.htm",
      "address": "",
      "lat": 43.5428868052283,
      "lng": 144.992059684467,
      "source": "P-WORLD",
      "is_grand_open": false,
      "open_date": "",
      "machines": {
        "total": 0,
        "pachinko": 0,
        "pachinko_4en": 0,
        "pachinko_1en": 0,
        "slot": 0,
        "slot_20en": 0,
        "slot_5en": 0
      },
      "pref": "北海道"
    },
    {
      "name": "マルハン端野店",
      "url": "https://www.p-world.co.jp/hokkaido/maruhan-tanno.htm",
      "address": "",
      "lat": 43.8400160268075,
      "lng": 143.935585034715,
      "source": "P-WORLD",
      "is_grand_open": false,
      "open_date": "",
      "machines": {
        "total": 0,
        "pachinko": 0,
        "pachinko_4en": 0,
        "pachinko_1en": 0,
        "slot": 0,
        "slot_20en": 0,
        "slot_5en": 0
      },
      "pref": "北海道"
    },
    {
      "name": "クラブイーグル　麻生店",
      "url": "https://www.p-world.co.jp/hokkaido/club-eagle-asabu.htm",
      "address": "",
      "lat": 43.1023194444444,
      "lng": 141.342656388889,
      "source": "P-WORLD",
      "is_grand_open": false,
      "open_date": "",
      "machines": {
        "total": 0,
        "pachinko": 0,
        "pachinko_4en": 0,
        "pachinko_1en": 0,
        "slot": 0,
        "slot_20en": 0,
        "slot_5en": 0
      },
      "pref": "北海道"
    },
    {
      "name": "プレイランドハッピー厚別店",
      "url": "https://www.p-world.co.jp/hokkaido/atubetu-play.htm",
      "address": "",
      "lat": 43.0450111111111,
      "lng": 141.482569444444,
      "source": "P-WORLD",
      "is_grand_open": false,
      "open_date": "",
      "machines": {
        "total": 0,
        "pachinko": 0,
        "pachinko_4en": 0,
        "pachinko_1en": 0,
        "slot": 0,
        "slot_20en": 0,
        "slot_5en": 0
      },
      "pref": "北海道"
    },
    {
      "name": "イーグル9旭川店",
      "url": "https://www.p-world.co.jp/hokkaido/eaglenine-asahikawa.htm",
      "address": "",
      "lat": 43.7790555555556,
      "lng": 142.390819444444,
      "source": "P-WORLD",
      "is_grand_open": false,
      "open_date": "",
      "machines": {
        "total": 0,
        "pachinko": 0,
        "pachinko_4en": 0,
        "pachinko_1en": 0,
        "slot": 0,
        "slot_20en": 0,
        "slot_5en": 0
      },
      "pref": "北海道"
    },
    {
      "name": "マルハン美しが丘店",
      "url": "https://www.p-world.co.jp/hokkaido/maruhan-u.htm",
      "address": "",
      "lat": 42.9811822222222,
      "lng": 141.461663888889,
      "source": "P-WORLD",
      "is_grand_open": false,
      "open_date": "",
      "machines": {
        "total": 0,
        "pachinko": 0,
        "pachinko_4en": 0,
        "pachinko_1en": 0,
        "slot": 0,
        "slot_20en": 0,
        "slot_5en": 0
      },
      "pref": "北海道"
    },
    {
      "name": "マルハン江別店",
      "url": "https://www.p-world.co.jp/hokkaido/maruhan-ebetsu.htm",
      "address": "",
      "lat": 43.0984588254021,
      "lng": 141.547347789553,
      "source": "P-WORLD",
      "is_grand_open": false,
      "open_date": "",
      "machines": {
        "total": 0,
        "pachinko": 0,
        "pachinko_4en": 0,
        "pachinko_1en": 0,
        "slot": 0,
        "slot_20en": 0,
        "slot_5en": 0
      },
      "pref": "北海道"
    },
    {
      "name": "ベガスベガス函館昭和店",
      "url": "https://www.p-world.co.jp/hokkaido/vegas-hakodateshowa.htm",
      "address": "",
      "lat": 41.8196219444444,
      "lng": 140.74165,
      "source": "P-WORLD",
      "is_grand_open": false,
      "open_date": "",
      "machines": {
        "total": 0,
        "pachinko": 0,
        "pachinko_4en": 0,
        "pachinko_1en": 0,
        "slot": 0,
        "slot_20en": 0,
        "slot_5en": 0
      },
      "pref": "北海道"
    },
    {
      "name": "マルハン琴似店",
      "url": "https://www.p-world.co.jp/hokkaido/maruhan-kotoni.htm",
      "address": "",
      "lat": 43.0741051890075,
      "lng": 141.320096198303,
      "source": "P-WORLD",
      "is_grand_open": false,
      "open_date": "",
      "machines": {
        "total": 0,
        "pachinko": 0,
        "pachinko_4en": 0,
        "pachinko_1en": 0,
        "slot": 0,
        "slot_20en": 0,
        "slot_5en": 0
      },
      "pref": "北海道"
    },
    {
      "name": "マルハン釧路店",
      "url": "https://www.p-world.co.jp/hokkaido/maruhan-kushiro.htm",
      "address": "",
      "lat": 43.0129662807688,
      "lng": 144.325138113515,
      "source": "P-WORLD",
      "is_grand_open": false,
      "open_date": "",
      "machines": {
        "total": 0,
        "pachinko": 0,
        "pachinko_4en": 0,
        "pachinko_1en": 0,
        "slot": 0,
        "slot_20en": 0,
        "slot_5en": 0
      },
      "pref": "北海道"
    },
    {
      "name": "マルハン木場店",
      "url": "https://www.p-world.co.jp/hokkaido/maruhan-kiba.htm",
      "address": "",
      "lat": 43.0061780555556,
      "lng": 144.414794166667,
      "source": "P-WORLD",
      "is_grand_open": false,
      "open_date": "",
      "machines": {
        "total": 0,
        "pachinko": 0,
        "pachinko_4en": 0,
        "pachinko_1en": 0,
        "slot": 0,
        "slot_20en": 0,
        "slot_5en": 0
      },
      "pref": "北海道"
    },
    {
      "name": "マルハン北見店",
      "url": "https://www.p-world.co.jp/hokkaido/maruhan-kitami.htm",
      "address": "",
      "lat": 43.8051058333333,
      "lng": 143.839828611111,
      "source": "P-WORLD",
      "is_grand_open": false,
      "open_date": "",
      "machines": {
        "total": 0,
        "pachinko": 0,
        "pachinko_4en": 0,
        "pachinko_1en": 0,
        "slot": 0,
        "slot_20en": 0,
        "slot_5en": 0
      },
      "pref": "北海道"
    },
    {
      "name": "函館ひまわり",
      "url": "https://www.p-world.co.jp/hokkaido/hakodate-himawari.htm",
      "address": "",
      "lat": 41.8082102777778,
      "lng": 140.739864166667,
      "source": "P-WORLD",
      "is_grand_open": false,
      "open_date": "",
      "machines": {
        "total": 0,
        "pachinko": 0,
        "pachinko_4en": 0,
        "pachinko_1en": 0,
        "slot": 0,
        "slot_20en": 0,
        "slot_5en": 0
      },
      "pref": "北海道"
    },
    {
      "name": "ビッグバン小樽店",
      "url": "https://www.p-world.co.jp/hokkaido/bigbang-otaru.htm",
      "address": "",
      "lat": 43.1786666666667,
      "lng": 141.012,
      "source": "P-WORLD",
      "is_grand_open": false,
      "open_date": "",
      "machines": {
        "total": 0,
        "pachinko": 0,
        "pachinko_4en": 0,
        "pachinko_1en": 0,
        "slot": 0,
        "slot_20en": 0,
        "slot_5en": 0
      },
      "pref": "北海道"
    },
    {
      "name": "ベガスベガス旭川店",
      "url": "https://www.p-world.co.jp/hokkaido/vegas-asahikawa.htm",
      "address": "：旭川市永山2条8丁目1-33",
      "lat": 43.7945049154473,
      "lng": 142.414706950858,
      "source": "P-WORLD",
      "is_grand_open": false,
      "open_date": "",
      "machines": {
        "total": 0,
        "pachinko": 0,
        "pachinko_4en": 0,
        "pachinko_1en": 0,
        "slot": 0,
        "slot_20en": 0,
        "slot_5en": 0
      },
      "pref": "北海道"
    },
    {
      "name": "マルハン帯広店",
      "url": "https://www.p-world.co.jp/hokkaido/maruhan-obihiro.htm",
      "address": "",
      "lat": 42.8931602954868,
      "lng": 143.212541612361,
      "source": "P-WORLD",
      "is_grand_open": false,
      "open_date": "",
      "machines": {
        "total": 0,
        "pachinko": 0,
        "pachinko_4en": 0,
        "pachinko_1en": 0,
        "slot": 0,
        "slot_20en": 0,
        "slot_5en": 0
      },
      "pref": "北海道"
    },
    {
      "name": "マルハン網走店",
      "url": "https://www.p-world.co.jp/hokkaido/maruhan-abashiri.htm",
      "address": "",
      "lat": 43.9922545248732,
      "lng": 144.278196091502,
      "source": "P-WORLD",
      "is_grand_open": false,
      "open_date": "",
      "machines": {
        "total": 0,
        "pachinko": 0,
        "pachinko_4en": 0,
        "pachinko_1en": 0,
        "slot": 0,
        "slot_20en": 0,
        "slot_5en": 0
      },
      "pref": "北海道"
    },
    {
      "name": "パーラーＤＡＩＧＯＲＯ　Ｘ",
      "url": "https://www.p-world.co.jp/hokkaido/daigoro-x.htm",
      "address": "",
      "lat": 43.8186944444444,
      "lng": 143.916388888889,
      "source": "P-WORLD",
      "is_grand_open": false,
      "open_date": "",
      "machines": {
        "total": 0,
        "pachinko": 0,
        "pachinko_4en": 0,
        "pachinko_1en": 0,
        "slot": 0,
        "slot_20en": 0,
        "slot_5en": 0
      },
      "pref": "北海道"
    },
    {
      "name": "イーグルR-1　南8条店",
      "url": "https://www.p-world.co.jp/hokkaido/eagle-r1-south8jou.htm",
      "address": "",
      "lat": 43.0461922222222,
      "lng": 141.343689444444,
      "source": "P-WORLD",
      "is_grand_open": false,
      "open_date": "",
      "machines": {
        "total": 0,
        "pachinko": 0,
        "pachinko_4en": 0,
        "pachinko_1en": 0,
        "slot": 0,
        "slot_20en": 0,
        "slot_5en": 0
      },
      "pref": "北海道"
    },
    {
      "name": "ゴールデン大宝　川沿店",
      "url": "https://www.p-world.co.jp/hokkaido/g-taiho.htm",
      "address": "",
      "lat": 42.9961388888889,
      "lng": 141.336611111111,
      "source": "P-WORLD",
      "is_grand_open": false,
      "open_date": "",
      "machines": {
        "total": 0,
        "pachinko": 0,
        "pachinko_4en": 0,
        "pachinko_1en": 0,
        "slot": 0,
        "slot_20en": 0,
        "slot_5en": 0
      },
      "pref": "北海道"
    },
    {
      "name": "プレイランドハッピー屯田四条店",
      "url": "https://www.p-world.co.jp/hokkaido/p-happy-t.htm",
      "address": "",
      "lat": 43.1276039951044,
      "lng": 141.332411383428,
      "source": "P-WORLD",
      "is_grand_open": false,
      "open_date": "",
      "machines": {
        "total": 0,
        "pachinko": 0,
        "pachinko_4en": 0,
        "pachinko_1en": 0,
        "slot": 0,
        "slot_20en": 0,
        "slot_5en": 0
      },
      "pref": "北海道"
    },
    {
      "name": "プレイランドハッピー藻岩店",
      "url": "https://www.p-world.co.jp/hokkaido/happy.htm",
      "address": "",
      "lat": 43.0075555555556,
      "lng": 141.348258333333,
      "source": "P-WORLD",
      "is_grand_open": false,
      "open_date": "",
      "machines": {
        "total": 0,
        "pachinko": 0,
        "pachinko_4en": 0,
        "pachinko_1en": 0,
        "slot": 0,
        "slot_20en": 0,
        "slot_5en": 0
      },
      "pref": "北海道"
    },
    {
      "name": "プレイランドハッピー築港店",
      "url": "https://www.p-world.co.jp/hokkaido/pl-happy.htm",
      "address": "",
      "lat": 43.1832835732765,
      "lng": 141.021780152461,
      "source": "P-WORLD",
      "is_grand_open": false,
      "open_date": "",
      "machines": {
        "total": 0,
        "pachinko": 0,
        "pachinko_4en": 0,
        "pachinko_1en": 0,
        "slot": 0,
        "slot_20en": 0,
        "slot_5en": 0
      },
      "pref": "北海道"
    },
    {
      "name": "がちゃぽん帯広店",
      "url": "https://www.p-world.co.jp/hokkaido/gachapon-obihiro.htm",
      "address": "",
      "lat": 42.9108313888889,
      "lng": 143.222795555556,
      "source": "P-WORLD",
      "is_grand_open": false,
      "open_date": "",
      "machines": {
        "total": 0,
        "pachinko": 0,
        "pachinko_4en": 0,
        "pachinko_1en": 0,
        "slot": 0,
        "slot_20en": 0,
        "slot_5en": 0
      },
      "pref": "北海道"
    },
    {
      "name": "ベガスベガス函館新港店",
      "url": "https://www.p-world.co.jp/hokkaido/hakodateshinminato.htm",
      "address": "",
      "lat": 41.7995233333333,
      "lng": 140.733411388889,
      "source": "P-WORLD",
      "is_grand_open": false,
      "open_date": "",
      "machines": {
        "total": 0,
        "pachinko": 0,
        "pachinko_4en": 0,
        "pachinko_1en": 0,
        "slot": 0,
        "slot_20en": 0,
        "slot_5en": 0
      },
      "pref": "北海道"
    },
    {
      "name": "士別ひまわり",
      "url": "https://www.p-world.co.jp/hokkaido/shibetsu-himawari.htm",
      "address": "",
      "lat": 44.1612222222222,
      "lng": 142.400919444444,
      "source": "P-WORLD",
      "is_grand_open": false,
      "open_date": "",
      "machines": {
        "total": 0,
        "pachinko": 0,
        "pachinko_4en": 0,
        "pachinko_1en": 0,
        "slot": 0,
        "slot_20en": 0,
        "slot_5en": 0
      },
      "pref": "北海道"
    },
    {
      "name": "ベガスベガス発寒店",
      "url": "https://www.p-world.co.jp/hokkaido/hassamu.htm",
      "address": "",
      "lat": 43.09785,
      "lng": 141.298148611111,
      "source": "P-WORLD",
      "is_grand_open": false,
      "open_date": "",
      "machines": {
        "total": 0,
        "pachinko": 0,
        "pachinko_4en": 0,
        "pachinko_1en": 0,
        "slot": 0,
        "slot_20en": 0,
        "slot_5en": 0
      },
      "pref": "北海道"
    },
    {
      "name": "イーグルオー　小樽店",
      "url": "https://www.p-world.co.jp/hokkaido/eagle-o-otaru.htm",
      "address": "",
      "lat": 43.1886805555555,
      "lng": 141.003433333333,
      "source": "P-WORLD",
      "is_grand_open": false,
      "open_date": "",
      "machines": {
        "total": 0,
        "pachinko": 0,
        "pachinko_4en": 0,
        "pachinko_1en": 0,
        "slot": 0,
        "slot_20en": 0,
        "slot_5en": 0
      },
      "pref": "北海道"
    },
    {
      "name": "パチンコボンボン豊岡店",
      "url": "https://www.p-world.co.jp/hokkaido/p-bonbon-t.htm",
      "address": "",
      "lat": 43.7577036111111,
      "lng": 142.397322222222,
      "source": "P-WORLD",
      "is_grand_open": false,
      "open_date": "",
      "machines": {
        "total": 0,
        "pachinko": 0,
        "pachinko_4en": 0,
        "pachinko_1en": 0,
        "slot": 0,
        "slot_20en": 0,
        "slot_5en": 0
      },
      "pref": "北海道"
    },
    {
      "name": "弟子屈ひまわり店",
      "url": "https://www.p-world.co.jp/hokkaido/teshikaga-himawari.htm",
      "address": "",
      "lat": 43.4915588888889,
      "lng": 144.458376666667,
      "source": "P-WORLD",
      "is_grand_open": false,
      "open_date": "",
      "machines": {
        "total": 0,
        "pachinko": 0,
        "pachinko_4en": 0,
        "pachinko_1en": 0,
        "slot": 0,
        "slot_20en": 0,
        "slot_5en": 0
      },
      "pref": "北海道"
    },
    {
      "name": "パーラー若草",
      "url": "https://www.p-world.co.jp/hokkaido/wakakusa.htm",
      "address": "",
      "lat": 43.0990532172563,
      "lng": 141.540000406808,
      "source": "P-WORLD",
      "is_grand_open": false,
      "open_date": "",
      "machines": {
        "total": 0,
        "pachinko": 0,
        "pachinko_4en": 0,
        "pachinko_1en": 0,
        "slot": 0,
        "slot_20en": 0,
        "slot_5en": 0
      },
      "pref": "北海道"
    },
    {
      "name": "プレイランドハッピー麻生店",
      "url": "https://www.p-world.co.jp/hokkaido/playlandhappy-azabu.htm",
      "address": "",
      "lat": 43.1007135362961,
      "lng": 141.342901216724,
      "source": "P-WORLD",
      "is_grand_open": false,
      "open_date": "",
      "machines": {
        "total": 0,
        "pachinko": 0,
        "pachinko_4en": 0,
        "pachinko_1en": 0,
        "slot": 0,
        "slot_20en": 0,
        "slot_5en": 0
      },
      "pref": "北海道"
    },
    {
      "name": "パチンコボンボン大町店",
      "url": "https://www.p-world.co.jp/hokkaido/bonbon-omachi.htm",
      "address": "",
      "lat": 43.7853722222222,
      "lng": 142.359470833333,
      "source": "P-WORLD",
      "is_grand_open": false,
      "open_date": "",
      "machines": {
        "total": 0,
        "pachinko": 0,
        "pachinko_4en": 0,
        "pachinko_1en": 0,
        "slot": 0,
        "slot_20en": 0,
        "slot_5en": 0
      },
      "pref": "北海道"
    },
    {
      "name": "クラブジェイ藤野店",
      "url": "https://www.p-world.co.jp/hokkaido/clubj-fujino.htm",
      "address": "",
      "lat": 42.959405,
      "lng": 141.301238333333,
      "source": "P-WORLD",
      "is_grand_open": false,
      "open_date": "",
      "machines": {
        "total": 0,
        "pachinko": 0,
        "pachinko_4en": 0,
        "pachinko_1en": 0,
        "slot": 0,
        "slot_20en": 0,
        "slot_5en": 0
      },
      "pref": "北海道"
    },
    {
      "name": "ベガスベガス狸小路二丁目店",
      "url": "https://www.p-world.co.jp/hokkaido/vegas-tanukikouji2.htm",
      "address": "",
      "lat": 43.0554694444444,
      "lng": 141.359299722222,
      "source": "P-WORLD",
      "is_grand_open": false,
      "open_date": "",
      "machines": {
        "total": 0,
        "pachinko": 0,
        "pachinko_4en": 0,
        "pachinko_1en": 0,
        "slot": 0,
        "slot_20en": 0,
        "slot_5en": 0
      },
      "pref": "北海道"
    },
    {
      "name": "ＺＥＵＳ",
      "url": "https://www.p-world.co.jp/hokkaido/zeus.htm",
      "address": "",
      "lat": 42.3575333333333,
      "lng": 140.988886111111,
      "source": "P-WORLD",
      "is_grand_open": false,
      "open_date": "",
      "machines": {
        "total": 0,
        "pachinko": 0,
        "pachinko_4en": 0,
        "pachinko_1en": 0,
        "slot": 0,
        "slot_20en": 0,
        "slot_5en": 0
      },
      "pref": "北海道"
    },
    {
      "name": "マルハン月寒店",
      "url": "https://www.p-world.co.jp/hokkaido/maruhan-tsukisamu.htm",
      "address": "",
      "lat": 43.02191,
      "lng": 141.397501111111,
      "source": "P-WORLD",
      "is_grand_open": false,
      "open_date": "",
      "machines": {
        "total": 0,
        "pachinko": 0,
        "pachinko_4en": 0,
        "pachinko_1en": 0,
        "slot": 0,
        "slot_20en": 0,
        "slot_5en": 0
      },
      "pref": "北海道"
    },
    {
      "name": "コアシティ",
      "url": "https://www.p-world.co.jp/hokkaido/corecity.htm",
      "address": "",
      "lat": 42.6207388888889,
      "lng": 141.549875,
      "source": "P-WORLD",
      "is_grand_open": false,
      "open_date": "",
      "machines": {
        "total": 0,
        "pachinko": 0,
        "pachinko_4en": 0,
        "pachinko_1en": 0,
        "slot": 0,
        "slot_20en": 0,
        "slot_5en": 0
      },
      "pref": "北海道"
    },
    {
      "name": "知床ひまわり",
      "url": "https://www.p-world.co.jp/hokkaido/himawari-shiretoko.htm",
      "address": "",
      "lat": 43.8980266666667,
      "lng": 144.665675277778,
      "source": "P-WORLD",
      "is_grand_open": false,
      "open_date": "",
      "machines": {
        "total": 0,
        "pachinko": 0,
        "pachinko_4en": 0,
        "pachinko_1en": 0,
        "slot": 0,
        "slot_20en": 0,
        "slot_5en": 0
      },
      "pref": "北海道"
    },
    {
      "name": "伊達ひまわり",
      "url": "https://www.p-world.co.jp/hokkaido/date-himawari.htm",
      "address": "",
      "lat": 42.4826083333333,
      "lng": 140.844675,
      "source": "P-WORLD",
      "is_grand_open": false,
      "open_date": "",
      "machines": {
        "total": 0,
        "pachinko": 0,
        "pachinko_4en": 0,
        "pachinko_1en": 0,
        "slot": 0,
        "slot_20en": 0,
        "slot_5en": 0
      },
      "pref": "北海道"
    },
    {
      "name": "プレイランドハッピー白石店",
      "url": "https://www.p-world.co.jp/hokkaido/playland-happy-shi.htm",
      "address": "",
      "lat": 43.0418888888889,
      "lng": 141.423083333333,
      "source": "P-WORLD",
      "is_grand_open": false,
      "open_date": "",
      "machines": {
        "total": 0,
        "pachinko": 0,
        "pachinko_4en": 0,
        "pachinko_1en": 0,
        "slot": 0,
        "slot_20en": 0,
        "slot_5en": 0
      },
      "pref": "北海道"
    },
    {
      "name": "がちゃぽん苫小牧店",
      "url": "https://www.p-world.co.jp/hokkaido/gachapon-tomakomai.htm",
      "address": "",
      "lat": 42.6595244444444,
      "lng": 141.629310555556,
      "source": "P-WORLD",
      "is_grand_open": false,
      "open_date": "",
      "machines": {
        "total": 0,
        "pachinko": 0,
        "pachinko_4en": 0,
        "pachinko_1en": 0,
        "slot": 0,
        "slot_20en": 0,
        "slot_5en": 0
      },
      "pref": "北海道"
    },
    {
      "name": "ライジング帯広",
      "url": "https://www.p-world.co.jp/hokkaido/rising-obihiro.htm",
      "address": "",
      "lat": 42.8867480555556,
      "lng": 143.200741111111,
      "source": "P-WORLD",
      "is_grand_open": false,
      "open_date": "",
      "machines": {
        "total": 0,
        "pachinko": 0,
        "pachinko_4en": 0,
        "pachinko_1en": 0,
        "slot": 0,
        "slot_20en": 0,
        "slot_5en": 0
      },
      "pref": "北海道"
    },
    {
      "name": "プレイランドハッピー西町店",
      "url": "https://www.p-world.co.jp/hokkaido/playlandhappy.htm",
      "address": "",
      "lat": 43.0816388888889,
      "lng": 141.285194444444,
      "source": "P-WORLD",
      "is_grand_open": false,
      "open_date": "",
      "machines": {
        "total": 0,
        "pachinko": 0,
        "pachinko_4en": 0,
        "pachinko_1en": 0,
        "slot": 0,
        "slot_20en": 0,
        "slot_5en": 0
      },
      "pref": "北海道"
    },
    {
      "name": "EBH",
      "url": "https://www.p-world.co.jp/hokkaido/ebh-bdhgroup.htm",
      "address": "",
      "lat": 43.1038444444444,
      "lng": 141.296461111111,
      "source": "P-WORLD",
      "is_grand_open": false,
      "open_date": "",
      "machines": {
        "total": 0,
        "pachinko": 0,
        "pachinko_4en": 0,
        "pachinko_1en": 0,
        "slot": 0,
        "slot_20en": 0,
        "slot_5en": 0
      },
      "pref": "北海道"
    },
    {
      "name": "ビッグスロット　北５条店",
      "url": "https://www.p-world.co.jp/hokkaido/bigslot500.htm",
      "address": "",
      "lat": 43.062011239111,
      "lng": 141.334790761819,
      "source": "P-WORLD",
      "is_grand_open": false,
      "open_date": "",
      "machines": {
        "total": 0,
        "pachinko": 0,
        "pachinko_4en": 0,
        "pachinko_1en": 0,
        "slot": 0,
        "slot_20en": 0,
        "slot_5en": 0
      },
      "pref": "北海道"
    },
    {
      "name": "プレイランドハッピー二十四軒店",
      "url": "https://www.p-world.co.jp/hokkaido/playland-happy-ni.htm",
      "address": "",
      "lat": 43.0669274545007,
      "lng": 141.318201910622,
      "source": "P-WORLD",
      "is_grand_open": false,
      "open_date": "",
      "machines": {
        "total": 0,
        "pachinko": 0,
        "pachinko_4en": 0,
        "pachinko_1en": 0,
        "slot": 0,
        "slot_20en": 0,
        "slot_5en": 0
      },
      "pref": "北海道"
    },
    {
      "name": "真駒内ひまわり",
      "url": "https://www.p-world.co.jp/hokkaido/makomanai-himawari.htm",
      "address": "",
      "lat": 43.0030544444444,
      "lng": 141.353635833333,
      "source": "P-WORLD",
      "is_grand_open": false,
      "open_date": "",
      "machines": {
        "total": 0,
        "pachinko": 0,
        "pachinko_4en": 0,
        "pachinko_1en": 0,
        "slot": 0,
        "slot_20en": 0,
        "slot_5en": 0
      },
      "pref": "北海道"
    },
    {
      "name": "ロイヤル北見店",
      "url": "https://www.p-world.co.jp/hokkaido/royal-kitami.htm",
      "address": "",
      "lat": 43.7975011237482,
      "lng": 143.852916013205,
      "source": "P-WORLD",
      "is_grand_open": false,
      "open_date": "",
      "machines": {
        "total": 0,
        "pachinko": 0,
        "pachinko_4en": 0,
        "pachinko_1en": 0,
        "slot": 0,
        "slot_20en": 0,
        "slot_5en": 0
      },
      "pref": "北海道"
    },
    {
      "name": "アミューズメントパーラー吉兆",
      "url": "https://www.p-world.co.jp/hokkaido/kiccho.htm",
      "address": "",
      "lat": 43.0834166666667,
      "lng": 141.518361111111,
      "source": "P-WORLD",
      "is_grand_open": false,
      "open_date": "",
      "machines": {
        "total": 0,
        "pachinko": 0,
        "pachinko_4en": 0,
        "pachinko_1en": 0,
        "slot": 0,
        "slot_20en": 0,
        "slot_5en": 0
      },
      "pref": "北海道"
    },
    {
      "name": "ベガスベガス札幌店",
      "url": "https://www.p-world.co.jp/hokkaido/vegas-sapporo.htm",
      "address": "",
      "lat": 43.0645277777778,
      "lng": 141.358611111111,
      "source": "P-WORLD",
      "is_grand_open": false,
      "open_date": "",
      "machines": {
        "total": 0,
        "pachinko": 0,
        "pachinko_4en": 0,
        "pachinko_1en": 0,
        "slot": 0,
        "slot_20en": 0,
        "slot_5en": 0
      },
      "pref": "北海道"
    },
    {
      "name": "清田ひまわり",
      "url": "https://www.p-world.co.jp/hokkaido/kiyota-himawari.htm",
      "address": "",
      "lat": 42.9982875,
      "lng": 141.440656666667,
      "source": "P-WORLD",
      "is_grand_open": false,
      "open_date": "",
      "machines": {
        "total": 0,
        "pachinko": 0,
        "pachinko_4en": 0,
        "pachinko_1en": 0,
        "slot": 0,
        "slot_20en": 0,
        "slot_5en": 0
      },
      "pref": "北海道"
    },
    {
      "name": "篠路ひまわり",
      "url": "https://www.p-world.co.jp/hokkaido/himawari-shinoro.htm",
      "address": "",
      "lat": 43.1411608333333,
      "lng": 141.366739166667,
      "source": "P-WORLD",
      "is_grand_open": false,
      "open_date": "",
      "machines": {
        "total": 0,
        "pachinko": 0,
        "pachinko_4en": 0,
        "pachinko_1en": 0,
        "slot": 0,
        "slot_20en": 0,
        "slot_5en": 0
      },
      "pref": "北海道"
    },
    {
      "name": "根室ひまわり",
      "url": "https://www.p-world.co.jp/hokkaido/nemuro-himawari.htm",
      "address": "",
      "lat": 43.3117361111111,
      "lng": 145.601858333333,
      "source": "P-WORLD",
      "is_grand_open": false,
      "open_date": "",
      "machines": {
        "total": 0,
        "pachinko": 0,
        "pachinko_4en": 0,
        "pachinko_1en": 0,
        "slot": 0,
        "slot_20en": 0,
        "slot_5en": 0
      },
      "pref": "北海道"
    },
    {
      "name": "タワーひまわり",
      "url": "https://www.p-world.co.jp/hokkaido/himawari-ekimaetower.htm",
      "address": "",
      "lat": 43.0642472222222,
      "lng": 141.356072222222,
      "source": "P-WORLD",
      "is_grand_open": false,
      "open_date": "",
      "machines": {
        "total": 0,
        "pachinko": 0,
        "pachinko_4en": 0,
        "pachinko_1en": 0,
        "slot": 0,
        "slot_20en": 0,
        "slot_5en": 0
      },
      "pref": "北海道"
    },
    {
      "name": "ロイヤル網走店",
      "url": "https://www.p-world.co.jp/hokkaido/royal-abashiri.htm",
      "address": "",
      "lat": 44.0198005555556,
      "lng": 144.271219444444,
      "source": "P-WORLD",
      "is_grand_open": false,
      "open_date": "",
      "machines": {
        "total": 0,
        "pachinko": 0,
        "pachinko_4en": 0,
        "pachinko_1en": 0,
        "slot": 0,
        "slot_20en": 0,
        "slot_5en": 0
      },
      "pref": "北海道"
    },
    {
      "name": "ロイヤル帯広店",
      "url": "https://www.p-world.co.jp/hokkaido/royal-obihiro.htm",
      "address": "",
      "lat": 42.9220691883708,
      "lng": 143.120827827387,
      "source": "P-WORLD",
      "is_grand_open": false,
      "open_date": "",
      "machines": {
        "total": 0,
        "pachinko": 0,
        "pachinko_4en": 0,
        "pachinko_1en": 0,
        "slot": 0,
        "slot_20en": 0,
        "slot_5en": 0
      },
      "pref": "北海道"
    },
    {
      "name": "マルハン滝川店",
      "url": "https://www.p-world.co.jp/hokkaido/maruhan-takikawa.htm",
      "address": "",
      "lat": 43.5605558333333,
      "lng": 141.914273611111,
      "source": "P-WORLD",
      "is_grand_open": false,
      "open_date": "",
      "machines": {
        "total": 0,
        "pachinko": 0,
        "pachinko_4en": 0,
        "pachinko_1en": 0,
        "slot": 0,
        "slot_20en": 0,
        "slot_5en": 0
      },
      "pref": "北海道"
    },
    {
      "name": "プレイランドハッピー厚別通店",
      "url": "https://www.p-world.co.jp/hokkaido/playlandhappy-atsu.htm",
      "address": "",
      "lat": 43.0509764288368,
      "lng": 141.44533733334,
      "source": "P-WORLD",
      "is_grand_open": false,
      "open_date": "",
      "machines": {
        "total": 0,
        "pachinko": 0,
        "pachinko_4en": 0,
        "pachinko_1en": 0,
        "slot": 0,
        "slot_20en": 0,
        "slot_5en": 0
      },
      "pref": "北海道"
    },
    {
      "name": "プレイランドハッピー本通店",
      "url": "https://www.p-world.co.jp/hokkaido/playland-happy-h.htm",
      "address": "",
      "lat": 41.7964955555556,
      "lng": 140.781868888889,
      "source": "P-WORLD",
      "is_grand_open": false,
      "open_date": "",
      "machines": {
        "total": 0,
        "pachinko": 0,
        "pachinko_4en": 0,
        "pachinko_1en": 0,
        "slot": 0,
        "slot_20en": 0,
        "slot_5en": 0
      },
      "pref": "北海道"
    },
    {
      "name": "プレイランドハッピー西宮の沢店",
      "url": "https://www.p-world.co.jp/hokkaido/plhappy-nishimiya.htm",
      "address": "",
      "lat": 43.0995833333333,
      "lng": 141.262833333333,
      "source": "P-WORLD",
      "is_grand_open": false,
      "open_date": "",
      "machines": {
        "total": 0,
        "pachinko": 0,
        "pachinko_4en": 0,
        "pachinko_1en": 0,
        "slot": 0,
        "slot_20en": 0,
        "slot_5en": 0
      },
      "pref": "北海道"
    },
    {
      "name": "留萌ひまわり",
      "url": "https://www.p-world.co.jp/hokkaido/rumoi-himawari.htm",
      "address": "",
      "lat": 43.9278833333333,
      "lng": 141.674783333333,
      "source": "P-WORLD",
      "is_grand_open": false,
      "open_date": "",
      "machines": {
        "total": 0,
        "pachinko": 0,
        "pachinko_4en": 0,
        "pachinko_1en": 0,
        "slot": 0,
        "slot_20en": 0,
        "slot_5en": 0
      },
      "pref": "北海道"
    },
    {
      "name": "DAIGORO　Z　手稲店",
      "url": "https://www.p-world.co.jp/hokkaido/daigoroz-teine.htm",
      "address": "",
      "lat": 43.1105722222222,
      "lng": 141.251388888889,
      "source": "P-WORLD",
      "is_grand_open": false,
      "open_date": "",
      "machines": {
        "total": 0,
        "pachinko": 0,
        "pachinko_4en": 0,
        "pachinko_1en": 0,
        "slot": 0,
        "slot_20en": 0,
        "slot_5en": 0
      },
      "pref": "北海道"
    },
    {
      "name": "アーリーワン釧路桂店",
      "url": "https://www.p-world.co.jp/hokkaido/early-one.htm",
      "address": "",
      "lat": 43.0061388888889,
      "lng": 144.405527777778,
      "source": "P-WORLD",
      "is_grand_open": false,
      "open_date": "",
      "machines": {
        "total": 0,
        "pachinko": 0,
        "pachinko_4en": 0,
        "pachinko_1en": 0,
        "slot": 0,
        "slot_20en": 0,
        "slot_5en": 0
      },
      "pref": "北海道"
    },
    {
      "name": "ダイナム北海道札幌東雁来店",
      "url": "https://www.p-world.co.jp/hokkaido/dynam-higashikariki.htm",
      "address": "",
      "lat": 43.0863644444444,
      "lng": 141.418179444444,
      "source": "P-WORLD",
      "is_grand_open": false,
      "open_date": "",
      "machines": {
        "total": 0,
        "pachinko": 0,
        "pachinko_4en": 0,
        "pachinko_1en": 0,
        "slot": 0,
        "slot_20en": 0,
        "slot_5en": 0
      },
      "pref": "北海道"
    },
    {
      "name": "ｍｏｎａｋｏ　ｍｏｎａｋｏ",
      "url": "https://www.p-world.co.jp/hokkaido/monako2222.htm",
      "address": "",
      "lat": 42.3393333333333,
      "lng": 142.354258333333,
      "source": "P-WORLD",
      "is_grand_open": false,
      "open_date": "",
      "machines": {
        "total": 0,
        "pachinko": 0,
        "pachinko_4en": 0,
        "pachinko_1en": 0,
        "slot": 0,
        "slot_20en": 0,
        "slot_5en": 0
      },
      "pref": "北海道"
    },
    {
      "name": "アーリーバード藻岩店",
      "url": "https://www.p-world.co.jp/hokkaido/earlybird-moiwa.htm",
      "address": "",
      "lat": 43.0272666666667,
      "lng": 141.349063888889,
      "source": "P-WORLD",
      "is_grand_open": false,
      "open_date": "",
      "machines": {
        "total": 0,
        "pachinko": 0,
        "pachinko_4en": 0,
        "pachinko_1en": 0,
        "slot": 0,
        "slot_20en": 0,
        "slot_5en": 0
      },
      "pref": "北海道"
    },
    {
      "name": "DAIGORO　Z　美幌店",
      "url": "https://www.p-world.co.jp/hokkaido/daigoro-z-bihoro.htm",
      "address": "",
      "lat": 43.8280222222222,
      "lng": 144.119977777778,
      "source": "P-WORLD",
      "is_grand_open": false,
      "open_date": "",
      "machines": {
        "total": 0,
        "pachinko": 0,
        "pachinko_4en": 0,
        "pachinko_1en": 0,
        "slot": 0,
        "slot_20en": 0,
        "slot_5en": 0
      },
      "pref": "北海道"
    },
    {
      "name": "ダイナム旭川近文店",
      "url": "https://www.p-world.co.jp/hokkaido/dynam-chikabumi.htm",
      "address": "",
      "lat": 43.7793055555556,
      "lng": 142.341,
      "source": "P-WORLD",
      "is_grand_open": false,
      "open_date": "",
      "machines": {
        "total": 0,
        "pachinko": 0,
        "pachinko_4en": 0,
        "pachinko_1en": 0,
        "slot": 0,
        "slot_20en": 0,
        "slot_5en": 0
      },
      "pref": "北海道"
    },
    {
      "name": "ダイナム名寄店",
      "url": "https://www.p-world.co.jp/hokkaido/dynam-nayoro.htm",
      "address": "",
      "lat": 44.333475,
      "lng": 142.456019444444,
      "source": "P-WORLD",
      "is_grand_open": false,
      "open_date": "",
      "machines": {
        "total": 0,
        "pachinko": 0,
        "pachinko_4en": 0,
        "pachinko_1en": 0,
        "slot": 0,
        "slot_20en": 0,
        "slot_5en": 0
      },
      "pref": "北海道"
    },
    {
      "name": "ダイナム室蘭店",
      "url": "https://www.p-world.co.jp/hokkaido/dynam-muroran.htm",
      "address": "",
      "lat": 42.3144370832128,
      "lng": 140.980325317824,
      "source": "P-WORLD",
      "is_grand_open": false,
      "open_date": "",
      "machines": {
        "total": 0,
        "pachinko": 0,
        "pachinko_4en": 0,
        "pachinko_1en": 0,
        "slot": 0,
        "slot_20en": 0,
        "slot_5en": 0
      },
      "pref": "北海道"
    },
    {
      "name": "ダイナム北見店",
      "url": "https://www.p-world.co.jp/hokkaido/dynam-kitami.htm",
      "address": "",
      "lat": 43.7956663888889,
      "lng": 143.84097,
      "source": "P-WORLD",
      "is_grand_open": false,
      "open_date": "",
      "machines": {
        "total": 0,
        "pachinko": 0,
        "pachinko_4en": 0,
        "pachinko_1en": 0,
        "slot": 0,
        "slot_20en": 0,
        "slot_5en": 0
      },
      "pref": "北海道"
    },
    {
      "name": "ダイナム釧路宝町店",
      "url": "https://www.p-world.co.jp/hokkaido/dynam-kusirotakara.htm",
      "address": "",
      "lat": 42.9933888888889,
      "lng": 144.370361111111,
      "source": "P-WORLD",
      "is_grand_open": false,
      "open_date": "",
      "machines": {
        "total": 0,
        "pachinko": 0,
        "pachinko_4en": 0,
        "pachinko_1en": 0,
        "slot": 0,
        "slot_20en": 0,
        "slot_5en": 0
      },
      "pref": "北海道"
    },
    {
      "name": "ダイナム砂川店",
      "url": "https://www.p-world.co.jp/hokkaido/dynam-sunagawa.htm",
      "address": "",
      "lat": 43.5424583333333,
      "lng": 141.919929166667,
      "source": "P-WORLD",
      "is_grand_open": false,
      "open_date": "",
      "machines": {
        "total": 0,
        "pachinko": 0,
        "pachinko_4en": 0,
        "pachinko_1en": 0,
        "slot": 0,
        "slot_20en": 0,
        "slot_5en": 0
      },
      "pref": "北海道"
    },
    {
      "name": "ダイナム深川店",
      "url": "https://www.p-world.co.jp/hokkaido/dynam-hukagawa.htm",
      "address": "",
      "lat": 43.7297981559974,
      "lng": 142.044718549761,
      "source": "P-WORLD",
      "is_grand_open": false,
      "open_date": "",
      "machines": {
        "total": 0,
        "pachinko": 0,
        "pachinko_4en": 0,
        "pachinko_1en": 0,
        "slot": 0,
        "slot_20en": 0,
        "slot_5en": 0
      },
      "pref": "北海道"
    },
    {
      "name": "ダイナム苫小牧店",
      "url": "https://www.p-world.co.jp/hokkaido/dynam-tomakomai.htm",
      "address": "",
      "lat": 42.6072222222222,
      "lng": 141.514472222222,
      "source": "P-WORLD",
      "is_grand_open": false,
      "open_date": "",
      "machines": {
        "total": 0,
        "pachinko": 0,
        "pachinko_4en": 0,
        "pachinko_1en": 0,
        "slot": 0,
        "slot_20en": 0,
        "slot_5en": 0
      },
      "pref": "北海道"
    },
    {
      "name": "ゴールドラッシュ南郷通店",
      "url": "https://www.p-world.co.jp/hokkaido/uno-nangou.htm",
      "address": "",
      "lat": 43.0383055555556,
      "lng": 141.414583333333,
      "source": "P-WORLD",
      "is_grand_open": false,
      "open_date": "",
      "machines": {
        "total": 0,
        "pachinko": 0,
        "pachinko_4en": 0,
        "pachinko_1en": 0,
        "slot": 0,
        "slot_20en": 0,
        "slot_5en": 0
      },
      "pref": "北海道"
    },
    {
      "name": "プレイランドハッピー千歳駅前店",
      "url": "https://www.p-world.co.jp/hokkaido/happy-chitose.htm",
      "address": "",
      "lat": 42.8237951369675,
      "lng": 141.657084259165,
      "source": "P-WORLD",
      "is_grand_open": false,
      "open_date": "",
      "machines": {
        "total": 0,
        "pachinko": 0,
        "pachinko_4en": 0,
        "pachinko_1en": 0,
        "slot": 0,
        "slot_20en": 0,
        "slot_5en": 0
      },
      "pref": "北海道"
    },
    {
      "name": "ＳＬＯＴ　ＢＡＲ　Ｍ’ｓ",
      "url": "https://www.p-world.co.jp/hokkaido/slot-bar-ms.htm",
      "address": "",
      "lat": 43.0931755555556,
      "lng": 141.374681388889,
      "source": "P-WORLD",
      "is_grand_open": false,
      "open_date": "",
      "machines": {
        "total": 0,
        "pachinko": 0,
        "pachinko_4en": 0,
        "pachinko_1en": 0,
        "slot": 0,
        "slot_20en": 0,
        "slot_5en": 0
      },
      "pref": "北海道"
    },
    {
      "name": "パチンコボンボン永山店",
      "url": "https://www.p-world.co.jp/hokkaido/bonbon-nagayama.htm",
      "address": "",
      "lat": 43.7883111111111,
      "lng": 142.405208333333,
      "source": "P-WORLD",
      "is_grand_open": false,
      "open_date": "",
      "machines": {
        "total": 0,
        "pachinko": 0,
        "pachinko_4en": 0,
        "pachinko_1en": 0,
        "slot": 0,
        "slot_20en": 0,
        "slot_5en": 0
      },
      "pref": "北海道"
    },
    {
      "name": "ＢＩＧ大王　東店",
      "url": "https://www.p-world.co.jp/hokkaido/bigdaiou-higasi.htm",
      "address": "",
      "lat": 43.0819894444444,
      "lng": 141.378106666667,
      "source": "P-WORLD",
      "is_grand_open": false,
      "open_date": "",
      "machines": {
        "total": 0,
        "pachinko": 0,
        "pachinko_4en": 0,
        "pachinko_1en": 0,
        "slot": 0,
        "slot_20en": 0,
        "slot_5en": 0
      },
      "pref": "北海道"
    },
    {
      "name": "アルファ南6条通店",
      "url": "https://www.p-world.co.jp/hokkaido/alpha-minami6.htm",
      "address": "",
      "lat": 43.7489338888889,
      "lng": 142.382011111111,
      "source": "P-WORLD",
      "is_grand_open": false,
      "open_date": "",
      "machines": {
        "total": 0,
        "pachinko": 0,
        "pachinko_4en": 0,
        "pachinko_1en": 0,
        "slot": 0,
        "slot_20en": 0,
        "slot_5en": 0
      },
      "pref": "北海道"
    },
    {
      "name": "パーラージャパン遊パチ館",
      "url": "https://www.p-world.co.jp/hokkaido/japan-yupachikan.htm",
      "address": "",
      "lat": 43.114175,
      "lng": 141.328755555556,
      "source": "P-WORLD",
      "is_grand_open": false,
      "open_date": "",
      "machines": {
        "total": 0,
        "pachinko": 0,
        "pachinko_4en": 0,
        "pachinko_1en": 0,
        "slot": 0,
        "slot_20en": 0,
        "slot_5en": 0
      },
      "pref": "北海道"
    },
    {
      "name": "中標津ひまわり",
      "url": "https://www.p-world.co.jp/hokkaido/nakashibetu-himawari.htm",
      "address": "",
      "lat": 43.5648069444444,
      "lng": 145.015604166667,
      "source": "P-WORLD",
      "is_grand_open": false,
      "open_date": "",
      "machines": {
        "total": 0,
        "pachinko": 0,
        "pachinko_4en": 0,
        "pachinko_1en": 0,
        "slot": 0,
        "slot_20en": 0,
        "slot_5en": 0
      },
      "pref": "北海道"
    },
    {
      "name": "帯広ひまわり",
      "url": "https://www.p-world.co.jp/hokkaido/obihiro-himawari.htm",
      "address": "",
      "lat": 42.9142380555556,
      "lng": 143.222683611111,
      "source": "P-WORLD",
      "is_grand_open": false,
      "open_date": "",
      "machines": {
        "total": 0,
        "pachinko": 0,
        "pachinko_4en": 0,
        "pachinko_1en": 0,
        "slot": 0,
        "slot_20en": 0,
        "slot_5en": 0
      },
      "pref": "北海道"
    },
    {
      "name": "ロイヤル釧路店",
      "url": "https://www.p-world.co.jp/hokkaido/royal-kushiro.htm",
      "address": "",
      "lat": 42.9945016666667,
      "lng": 144.415744166667,
      "source": "P-WORLD",
      "is_grand_open": false,
      "open_date": "",
      "machines": {
        "total": 0,
        "pachinko": 0,
        "pachinko_4en": 0,
        "pachinko_1en": 0,
        "slot": 0,
        "slot_20en": 0,
        "slot_5en": 0
      },
      "pref": "北海道"
    },
    {
      "name": "TAMAYA千歳店",
      "url": "https://www.p-world.co.jp/hokkaido/tamaya.htm",
      "address": "",
      "lat": 42.8292544444444,
      "lng": 141.636672222222,
      "source": "P-WORLD",
      "is_grand_open": false,
      "open_date": "",
      "machines": {
        "total": 0,
        "pachinko": 0,
        "pachinko_4en": 0,
        "pachinko_1en": 0,
        "slot": 0,
        "slot_20en": 0,
        "slot_5en": 0
      },
      "pref": "北海道"
    },
    {
      "name": "ベガスベガス狸小路店",
      "url": "https://www.p-world.co.jp/hokkaido/vegas-tanukikouji.htm",
      "address": "",
      "lat": 43.0550319444444,
      "lng": 141.356140277778,
      "source": "P-WORLD",
      "is_grand_open": false,
      "open_date": "",
      "machines": {
        "total": 0,
        "pachinko": 0,
        "pachinko_4en": 0,
        "pachinko_1en": 0,
        "slot": 0,
        "slot_20en": 0,
        "slot_5en": 0
      },
      "pref": "北海道"
    },
    {
      "name": "ベガスベガス美しが丘店",
      "url": "https://www.p-world.co.jp/hokkaido/vegas-utukushigaoka.htm",
      "address": "",
      "lat": 42.9783740855341,
      "lng": 141.467057795109,
      "source": "P-WORLD",
      "is_grand_open": false,
      "open_date": "",
      "machines": {
        "total": 0,
        "pachinko": 0,
        "pachinko_4en": 0,
        "pachinko_1en": 0,
        "slot": 0,
        "slot_20en": 0,
        "slot_5en": 0
      },
      "pref": "北海道"
    },
    {
      "name": "ベガスベガス函館吉川店",
      "url": "https://www.p-world.co.jp/hokkaido/vegas-hakodate.htm",
      "address": "",
      "lat": 41.7905097583447,
      "lng": 140.733852235477,
      "source": "P-WORLD",
      "is_grand_open": false,
      "open_date": "",
      "machines": {
        "total": 0,
        "pachinko": 0,
        "pachinko_4en": 0,
        "pachinko_1en": 0,
        "slot": 0,
        "slot_20en": 0,
        "slot_5en": 0
      },
      "pref": "北海道"
    },
    {
      "name": "ベガスベガス栄町店",
      "url": "https://www.p-world.co.jp/hokkaido/vegas-sakaemachi.htm",
      "address": "",
      "lat": 43.1115027777778,
      "lng": 141.371386111111,
      "source": "P-WORLD",
      "is_grand_open": false,
      "open_date": "",
      "machines": {
        "total": 0,
        "pachinko": 0,
        "pachinko_4en": 0,
        "pachinko_1en": 0,
        "slot": 0,
        "slot_20en": 0,
        "slot_5en": 0
      },
      "pref": "北海道"
    },
    {
      "name": "音更ひまわり",
      "url": "https://www.p-world.co.jp/hokkaido/otofuke-himawari.htm",
      "address": "",
      "lat": 42.9588666666667,
      "lng": 143.2111,
      "source": "P-WORLD",
      "is_grand_open": false,
      "open_date": "",
      "machines": {
        "total": 0,
        "pachinko": 0,
        "pachinko_4en": 0,
        "pachinko_1en": 0,
        "slot": 0,
        "slot_20en": 0,
        "slot_5en": 0
      },
      "pref": "北海道"
    },
    {
      "name": "ライジング元町",
      "url": "https://www.p-world.co.jp/hokkaido/rising-motomachi.htm",
      "address": "",
      "lat": 43.0959127777778,
      "lng": 141.373963888889,
      "source": "P-WORLD",
      "is_grand_open": false,
      "open_date": "",
      "machines": {
        "total": 0,
        "pachinko": 0,
        "pachinko_4en": 0,
        "pachinko_1en": 0,
        "slot": 0,
        "slot_20en": 0,
        "slot_5en": 0
      },
      "pref": "北海道"
    },
    {
      "name": "アルファ旭町店",
      "url": "https://www.p-world.co.jp/hokkaido/plaza-alpha-asa.htm",
      "address": "",
      "lat": 43.7842638888889,
      "lng": 142.357513888889,
      "source": "P-WORLD",
      "is_grand_open": false,
      "open_date": "",
      "machines": {
        "total": 0,
        "pachinko": 0,
        "pachinko_4en": 0,
        "pachinko_1en": 0,
        "slot": 0,
        "slot_20en": 0,
        "slot_5en": 0
      },
      "pref": "北海道"
    },
    {
      "name": "パ−ラ−ＤＡＩＧＯＲＯ　Ｚ",
      "url": "https://www.p-world.co.jp/hokkaido/daigorouz.htm",
      "address": "",
      "lat": 43.7993763369825,
      "lng": 143.880824416948,
      "source": "P-WORLD",
      "is_grand_open": false,
      "open_date": "",
      "machines": {
        "total": 0,
        "pachinko": 0,
        "pachinko_4en": 0,
        "pachinko_1en": 0,
        "slot": 0,
        "slot_20en": 0,
        "slot_5en": 0
      },
      "pref": "北海道"
    },
    {
      "name": "ライジング江別",
      "url": "https://www.p-world.co.jp/hokkaido/rising-ebetsu.htm",
      "address": "",
      "lat": 43.0940336722225,
      "lng": 141.540472714981,
      "source": "P-WORLD",
      "is_grand_open": false,
      "open_date": "",
      "machines": {
        "total": 0,
        "pachinko": 0,
        "pachinko_4en": 0,
        "pachinko_1en": 0,
        "slot": 0,
        "slot_20en": 0,
        "slot_5en": 0
      },
      "pref": "北海道"
    },
    {
      "name": "アルファ南４条店",
      "url": "https://www.p-world.co.jp/hokkaido/plaza-alpha-minami.htm",
      "address": "",
      "lat": 43.7516841666667,
      "lng": 142.380006944444,
      "source": "P-WORLD",
      "is_grand_open": false,
      "open_date": "",
      "machines": {
        "total": 0,
        "pachinko": 0,
        "pachinko_4en": 0,
        "pachinko_1en": 0,
        "slot": 0,
        "slot_20en": 0,
        "slot_5en": 0
      },
      "pref": "北海道"
    },
    {
      "name": "紋別ひまわり",
      "url": "https://www.p-world.co.jp/hokkaido/monbetsu-himawari.htm",
      "address": "",
      "lat": 44.3268805555556,
      "lng": 143.354631944444,
      "source": "P-WORLD",
      "is_grand_open": false,
      "open_date": "",
      "machines": {
        "total": 0,
        "pachinko": 0,
        "pachinko_4en": 0,
        "pachinko_1en": 0,
        "slot": 0,
        "slot_20en": 0,
        "slot_5en": 0
      },
      "pref": "北海道"
    },
    {
      "name": "アルファ環状店",
      "url": "https://www.p-world.co.jp/hokkaido/plaza-alpha-kanjyou.htm",
      "address": "",
      "lat": 43.7805063888889,
      "lng": 142.416536944444,
      "source": "P-WORLD",
      "is_grand_open": false,
      "open_date": "",
      "machines": {
        "total": 0,
        "pachinko": 0,
        "pachinko_4en": 0,
        "pachinko_1en": 0,
        "slot": 0,
        "slot_20en": 0,
        "slot_5en": 0
      },
      "pref": "北海道"
    },
    {
      "name": "ガイア",
      "url": "https://www.p-world.co.jp/hokkaido/ishikari-gaea.htm",
      "address": "",
      "lat": 43.1451944444444,
      "lng": 141.296472222222,
      "source": "P-WORLD",
      "is_grand_open": false,
      "open_date": "",
      "machines": {
        "total": 0,
        "pachinko": 0,
        "pachinko_4en": 0,
        "pachinko_1en": 0,
        "slot": 0,
        "slot_20en": 0,
        "slot_5en": 0
      },
      "pref": "北海道"
    },
    {
      "name": "パーラージャパン",
      "url": "https://www.p-world.co.jp/hokkaido/palor-japan.htm",
      "address": "",
      "lat": 43.1136489707053,
      "lng": 141.328520217979,
      "source": "P-WORLD",
      "is_grand_open": false,
      "open_date": "",
      "machines": {
        "total": 0,
        "pachinko": 0,
        "pachinko_4en": 0,
        "pachinko_1en": 0,
        "slot": 0,
        "slot_20en": 0,
        "slot_5en": 0
      },
      "pref": "北海道"
    },
    {
      "name": "パーラーコンパル留萌店",
      "url": "https://www.p-world.co.jp/hokkaido/conpal.htm",
      "address": "",
      "lat": 43.9335971627619,
      "lng": 141.654548931999,
      "source": "P-WORLD",
      "is_grand_open": false,
      "open_date": "",
      "machines": {
        "total": 0,
        "pachinko": 0,
        "pachinko_4en": 0,
        "pachinko_1en": 0,
        "slot": 0,
        "slot_20en": 0,
        "slot_5en": 0
      },
      "pref": "北海道"
    },
    {
      "name": "イーグルウエスト西町店",
      "url": "https://www.p-world.co.jp/hokkaido/eaglewest-nishimachi.htm",
      "address": "",
      "lat": 43.0765333333333,
      "lng": 141.292263888889,
      "source": "P-WORLD",
      "is_grand_open": false,
      "open_date": "",
      "machines": {
        "total": 0,
        "pachinko": 0,
        "pachinko_4en": 0,
        "pachinko_1en": 0,
        "slot": 0,
        "slot_20en": 0,
        "slot_5en": 0
      },
      "pref": "北海道"
    },
    {
      "name": "ベガスベガス函館空港前店",
      "url": "https://www.p-world.co.jp/hokkaido/hakodatekukomaeten.htm",
      "address": "",
      "lat": 41.7705630555556,
      "lng": 140.801788888889,
      "source": "P-WORLD",
      "is_grand_open": false,
      "open_date": "",
      "machines": {
        "total": 0,
        "pachinko": 0,
        "pachinko_4en": 0,
        "pachinko_1en": 0,
        "slot": 0,
        "slot_20en": 0,
        "slot_5en": 0
      },
      "pref": "北海道"
    },
    {
      "name": "イーグルウイング伏古店",
      "url": "https://www.p-world.co.jp/hokkaido/eagle-wing-fushiko.htm",
      "address": "",
      "lat": 43.0967508333333,
      "lng": 141.394095,
      "source": "P-WORLD",
      "is_grand_open": false,
      "open_date": "",
      "machines": {
        "total": 0,
        "pachinko": 0,
        "pachinko_4en": 0,
        "pachinko_1en": 0,
        "slot": 0,
        "slot_20en": 0,
        "slot_5en": 0
      },
      "pref": "北海道"
    },
    {
      "name": "イーグルタウン大谷地店",
      "url": "https://www.p-world.co.jp/hokkaido/eagle-town-ooyachi.htm",
      "address": "",
      "lat": 43.0266444444444,
      "lng": 141.458291666667,
      "source": "P-WORLD",
      "is_grand_open": false,
      "open_date": "",
      "machines": {
        "total": 0,
        "pachinko": 0,
        "pachinko_4en": 0,
        "pachinko_1en": 0,
        "slot": 0,
        "slot_20en": 0,
        "slot_5en": 0
      },
      "pref": "北海道"
    },
    {
      "name": "がちゃぽん札幌新川店",
      "url": "https://www.p-world.co.jp/hokkaido/gachapon-sapporo.htm",
      "address": "",
      "lat": 43.0991111111111,
      "lng": 141.312475,
      "source": "P-WORLD",
      "is_grand_open": false,
      "open_date": "",
      "machines": {
        "total": 0,
        "pachinko": 0,
        "pachinko_4en": 0,
        "pachinko_1en": 0,
        "slot": 0,
        "slot_20en": 0,
        "slot_5en": 0
      },
      "pref": "北海道"
    },
    {
      "name": "パーラー甲子園西町店",
      "url": "https://www.p-world.co.jp/hokkaido/koshien-nishimachi.htm",
      "address": "",
      "lat": 43.0771983259475,
      "lng": 141.291107533549,
      "source": "P-WORLD",
      "is_grand_open": false,
      "open_date": "",
      "machines": {
        "total": 0,
        "pachinko": 0,
        "pachinko_4en": 0,
        "pachinko_1en": 0,
        "slot": 0,
        "slot_20en": 0,
        "slot_5en": 0
      },
      "pref": "北海道"
    },
    {
      "name": "ライジング琴似",
      "url": "https://www.p-world.co.jp/hokkaido/rising-kotoni.htm",
      "address": "",
      "lat": 43.0804656133936,
      "lng": 141.306110129709,
      "source": "P-WORLD",
      "is_grand_open": false,
      "open_date": "",
      "machines": {
        "total": 0,
        "pachinko": 0,
        "pachinko_4en": 0,
        "pachinko_1en": 0,
        "slot": 0,
        "slot_20en": 0,
        "slot_5en": 0
      },
      "pref": "北海道"
    },
    {
      "name": "パーラーハビン芦別店",
      "url": "https://www.p-world.co.jp/hokkaido/habin-ashibestu.htm",
      "address": "",
      "lat": 43.4989391571945,
      "lng": 142.205702391094,
      "source": "P-WORLD",
      "is_grand_open": false,
      "open_date": "",
      "machines": {
        "total": 0,
        "pachinko": 0,
        "pachinko_4en": 0,
        "pachinko_1en": 0,
        "slot": 0,
        "slot_20en": 0,
        "slot_5en": 0
      },
      "pref": "北海道"
    },
    {
      "name": "パーラーロイヤル静内店",
      "url": "https://www.p-world.co.jp/hokkaido/royal-sizunai.htm",
      "address": "",
      "lat": 42.3385416666667,
      "lng": 142.353620833333,
      "source": "P-WORLD",
      "is_grand_open": false,
      "open_date": "",
      "machines": {
        "total": 0,
        "pachinko": 0,
        "pachinko_4en": 0,
        "pachinko_1en": 0,
        "slot": 0,
        "slot_20en": 0,
        "slot_5en": 0
      },
      "pref": "北海道"
    },
    {
      "name": "プレイランドハッピー手稲前田店",
      "url": "https://www.p-world.co.jp/hokkaido/playland-happy-t.htm",
      "address": "",
      "lat": 43.1212027777778,
      "lng": 141.255086111111,
      "source": "P-WORLD",
      "is_grand_open": false,
      "open_date": "",
      "machines": {
        "total": 0,
        "pachinko": 0,
        "pachinko_4en": 0,
        "pachinko_1en": 0,
        "slot": 0,
        "slot_20en": 0,
        "slot_5en": 0
      },
      "pref": "北海道"
    },
    {
      "name": "イーグルピュアシティ東札幌店",
      "url": "https://www.p-world.co.jp/hokkaido/eagle-purecity-east.htm",
      "address": "",
      "lat": 43.049525,
      "lng": 141.389425277778,
      "source": "P-WORLD",
      "is_grand_open": false,
      "open_date": "",
      "machines": {
        "total": 0,
        "pachinko": 0,
        "pachinko_4en": 0,
        "pachinko_1en": 0,
        "slot": 0,
        "slot_20en": 0,
        "slot_5en": 0
      },
      "pref": "北海道"
    },
    {
      "name": "プレイランドハッピー東苗穂店",
      "url": "https://www.p-world.co.jp/hokkaido/happy-hnaebo.htm",
      "address": "",
      "lat": 43.0844480001822,
      "lng": 141.411437359063,
      "source": "P-WORLD",
      "is_grand_open": false,
      "open_date": "",
      "machines": {
        "total": 0,
        "pachinko": 0,
        "pachinko_4en": 0,
        "pachinko_1en": 0,
        "slot": 0,
        "slot_20en": 0,
        "slot_5en": 0
      },
      "pref": "北海道"
    },
    {
      "name": "プレイランドハッピー栄町店",
      "url": "https://www.p-world.co.jp/hokkaido/playland-happy-sa.htm",
      "address": "",
      "lat": 43.11075,
      "lng": 141.370277777778,
      "source": "P-WORLD",
      "is_grand_open": false,
      "open_date": "",
      "machines": {
        "total": 0,
        "pachinko": 0,
        "pachinko_4en": 0,
        "pachinko_1en": 0,
        "slot": 0,
        "slot_20en": 0,
        "slot_5en": 0
      },
      "pref": "北海道"
    },
    {
      "name": "室蘭ひまわり",
      "url": "https://www.p-world.co.jp/hokkaido/muroran-himawari.htm",
      "address": "",
      "lat": 42.34545,
      "lng": 141.028722222222,
      "source": "P-WORLD",
      "is_grand_open": false,
      "open_date": "",
      "machines": {
        "total": 0,
        "pachinko": 0,
        "pachinko_4en": 0,
        "pachinko_1en": 0,
        "slot": 0,
        "slot_20en": 0,
        "slot_5en": 0
      },
      "pref": "北海道"
    },
    {
      "name": "ゴールデン大宝花川店",
      "url": "https://www.p-world.co.jp/hokkaido/goldentaiho.htm",
      "address": "",
      "lat": 43.1625833333333,
      "lng": 141.312055555556,
      "source": "P-WORLD",
      "is_grand_open": false,
      "open_date": "",
      "machines": {
        "total": 0,
        "pachinko": 0,
        "pachinko_4en": 0,
        "pachinko_1en": 0,
        "slot": 0,
        "slot_20en": 0,
        "slot_5en": 0
      },
      "pref": "北海道"
    },
    {
      "name": "滝川ひまわり",
      "url": "https://www.p-world.co.jp/hokkaido/takigawa-himawari.htm",
      "address": "",
      "lat": 43.571775,
      "lng": 141.919039166667,
      "source": "P-WORLD",
      "is_grand_open": false,
      "open_date": "",
      "machines": {
        "total": 0,
        "pachinko": 0,
        "pachinko_4en": 0,
        "pachinko_1en": 0,
        "slot": 0,
        "slot_20en": 0,
        "slot_5en": 0
      },
      "pref": "北海道"
    },
    {
      "name": "KEIZ手稲店",
      "url": "https://www.p-world.co.jp/hokkaido/keiz-teine.htm",
      "address": "",
      "lat": 43.1189866666667,
      "lng": 141.240610277778,
      "source": "P-WORLD",
      "is_grand_open": false,
      "open_date": "",
      "machines": {
        "total": 0,
        "pachinko": 0,
        "pachinko_4en": 0,
        "pachinko_1en": 0,
        "slot": 0,
        "slot_20en": 0,
        "slot_5en": 0
      },
      "pref": "北海道"
    },
    {
      "name": "プレイランドハッピー八軒店",
      "url": "https://www.p-world.co.jp/hokkaido/playland-happy.htm",
      "address": "",
      "lat": 43.0855077511214,
      "lng": 141.31764891994,
      "source": "P-WORLD",
      "is_grand_open": false,
      "open_date": "",
      "machines": {
        "total": 0,
        "pachinko": 0,
        "pachinko_4en": 0,
        "pachinko_1en": 0,
        "slot": 0,
        "slot_20en": 0,
        "slot_5en": 0
      },
      "pref": "北海道"
    },
    {
      "name": "美幌ひまわり",
      "url": "https://www.p-world.co.jp/hokkaido/bihoro-himawari.htm",
      "address": "",
      "lat": 43.8231888888889,
      "lng": 144.124302777778,
      "source": "P-WORLD",
      "is_grand_open": false,
      "open_date": "",
      "machines": {
        "total": 0,
        "pachinko": 0,
        "pachinko_4en": 0,
        "pachinko_1en": 0,
        "slot": 0,
        "slot_20en": 0,
        "slot_5en": 0
      },
      "pref": "北海道"
    },
    {
      "name": "ゴールデンゴッド浦河店",
      "url": "https://www.p-world.co.jp/hokkaido/urakawa1133.htm",
      "address": "",
      "lat": 42.1589555555556,
      "lng": 142.779563888889,
      "source": "P-WORLD",
      "is_grand_open": false,
      "open_date": "",
      "machines": {
        "total": 0,
        "pachinko": 0,
        "pachinko_4en": 0,
        "pachinko_1en": 0,
        "slot": 0,
        "slot_20en": 0,
        "slot_5en": 0
      },
      "pref": "北海道"
    },
    {
      "name": "ゾーン澄川店",
      "url": "https://www.p-world.co.jp/hokkaido/zoonsumikawa.htm",
      "address": "",
      "lat": 43.0140547222222,
      "lng": 141.36982,
      "source": "P-WORLD",
      "is_grand_open": false,
      "open_date": "",
      "machines": {
        "total": 0,
        "pachinko": 0,
        "pachinko_4en": 0,
        "pachinko_1en": 0,
        "slot": 0,
        "slot_20en": 0,
        "slot_5en": 0
      },
      "pref": "北海道"
    },
    {
      "name": "ベガスベガス苫小牧店",
      "url": "https://www.p-world.co.jp/hokkaido/vegasvegas-tomakomai.htm",
      "address": "",
      "lat": 42.6394972222222,
      "lng": 141.598472222222,
      "source": "P-WORLD",
      "is_grand_open": false,
      "open_date": "",
      "machines": {
        "total": 0,
        "pachinko": 0,
        "pachinko_4en": 0,
        "pachinko_1en": 0,
        "slot": 0,
        "slot_20en": 0,
        "slot_5en": 0
      },
      "pref": "北海道"
    },
    {
      "name": "ベガスベガス函館神山店",
      "url": "https://www.p-world.co.jp/hokkaido/vegas-kamiyama.htm",
      "address": "",
      "lat": 41.8083008333333,
      "lng": 140.772880555556,
      "source": "P-WORLD",
      "is_grand_open": false,
      "open_date": "",
      "machines": {
        "total": 0,
        "pachinko": 0,
        "pachinko_4en": 0,
        "pachinko_1en": 0,
        "slot": 0,
        "slot_20en": 0,
        "slot_5en": 0
      },
      "pref": "北海道"
    },
    {
      "name": "パチンコジャイアンツ",
      "url": "https://www.p-world.co.jp/hokkaido/giants.htm",
      "address": "",
      "lat": 43.9351711111111,
      "lng": 141.658605833333,
      "source": "P-WORLD",
      "is_grand_open": false,
      "open_date": "",
      "machines": {
        "total": 0,
        "pachinko": 0,
        "pachinko_4en": 0,
        "pachinko_1en": 0,
        "slot": 0,
        "slot_20en": 0,
        "slot_5en": 0
      },
      "pref": "北海道"
    },
    {
      "name": "パチンコパーラー東和網走店",
      "url": "https://www.p-world.co.jp/hokkaido/towa-komaba.htm",
      "address": "",
      "lat": 44.0001018236949,
      "lng": 144.286234920227,
      "source": "P-WORLD",
      "is_grand_open": false,
      "open_date": "",
      "machines": {
        "total": 0,
        "pachinko": 0,
        "pachinko_4en": 0,
        "pachinko_1en": 0,
        "slot": 0,
        "slot_20en": 0,
        "slot_5en": 0
      },
      "pref": "北海道"
    },
    {
      "name": "ライジング清水",
      "url": "https://www.p-world.co.jp/hokkaido/risingsimizu.htm",
      "address": "",
      "lat": 43.0074555555556,
      "lng": 142.893398611111,
      "source": "P-WORLD",
      "is_grand_open": false,
      "open_date": "",
      "machines": {
        "total": 0,
        "pachinko": 0,
        "pachinko_4en": 0,
        "pachinko_1en": 0,
        "slot": 0,
        "slot_20en": 0,
        "slot_5en": 0
      },
      "pref": "北海道"
    },
    {
      "name": "オーロラ北見店",
      "url": "https://www.p-world.co.jp/hokkaido/aurora-kitami.htm",
      "address": "",
      "lat": 43.7949944444444,
      "lng": 143.837252777778,
      "source": "P-WORLD",
      "is_grand_open": false,
      "open_date": "",
      "machines": {
        "total": 0,
        "pachinko": 0,
        "pachinko_4en": 0,
        "pachinko_1en": 0,
        "slot": 0,
        "slot_20en": 0,
        "slot_5en": 0
      },
      "pref": "北海道"
    },
    {
      "name": "クラブジェイ　篠路店",
      "url": "https://www.p-world.co.jp/hokkaido/clubj-shinoro.htm",
      "address": "",
      "lat": 43.1425678653941,
      "lng": 141.3627616924,
      "source": "P-WORLD",
      "is_grand_open": false,
      "open_date": "",
      "machines": {
        "total": 0,
        "pachinko": 0,
        "pachinko_4en": 0,
        "pachinko_1en": 0,
        "slot": 0,
        "slot_20en": 0,
        "slot_5en": 0
      },
      "pref": "北海道"
    },
    {
      "name": "パチンコパーラー東和美幌店",
      "url": "https://www.p-world.co.jp/hokkaido/towa-bihoro.htm",
      "address": "",
      "lat": 43.8254166666667,
      "lng": 144.125444444444,
      "source": "P-WORLD",
      "is_grand_open": false,
      "open_date": "",
      "machines": {
        "total": 0,
        "pachinko": 0,
        "pachinko_4en": 0,
        "pachinko_1en": 0,
        "slot": 0,
        "slot_20en": 0,
        "slot_5en": 0
      },
      "pref": "北海道"
    },
    {
      "name": "パーラーマンモス’21月寒店",
      "url": "https://www.p-world.co.jp/hokkaido/mammoth21.htm",
      "address": "",
      "lat": 43.0255,
      "lng": 141.402111111111,
      "source": "P-WORLD",
      "is_grand_open": false,
      "open_date": "",
      "machines": {
        "total": 0,
        "pachinko": 0,
        "pachinko_4en": 0,
        "pachinko_1en": 0,
        "slot": 0,
        "slot_20en": 0,
        "slot_5en": 0
      },
      "pref": "北海道"
    },
    {
      "name": "ダイナム北海道札幌清田店",
      "url": "https://www.p-world.co.jp/hokkaido/dynam-kiyota.htm",
      "address": "",
      "lat": 42.9992063888889,
      "lng": 141.438498888889,
      "source": "P-WORLD",
      "is_grand_open": false,
      "open_date": "",
      "machines": {
        "total": 0,
        "pachinko": 0,
        "pachinko_4en": 0,
        "pachinko_1en": 0,
        "slot": 0,
        "slot_20en": 0,
        "slot_5en": 0
      },
      "pref": "北海道"
    },
    {
      "name": "ダイナム帯広店",
      "url": "https://www.p-world.co.jp/hokkaido/dynam-obihiro.htm",
      "address": "",
      "lat": 42.9138050423867,
      "lng": 143.227480103069,
      "source": "P-WORLD",
      "is_grand_open": false,
      "open_date": "",
      "machines": {
        "total": 0,
        "pachinko": 0,
        "pachinko_4en": 0,
        "pachinko_1en": 0,
        "slot": 0,
        "slot_20en": 0,
        "slot_5en": 0
      },
      "pref": "北海道"
    },
    {
      "name": "ダイナム石狩店",
      "url": "https://www.p-world.co.jp/hokkaido/dynam-isikari.htm",
      "address": "",
      "lat": 43.1819175,
      "lng": 141.320701388889,
      "source": "P-WORLD",
      "is_grand_open": false,
      "open_date": "",
      "machines": {
        "total": 0,
        "pachinko": 0,
        "pachinko_4en": 0,
        "pachinko_1en": 0,
        "slot": 0,
        "slot_20en": 0,
        "slot_5en": 0
      },
      "pref": "北海道"
    },
    {
      "name": "ダイナム千歳店",
      "url": "https://www.p-world.co.jp/hokkaido/dynam-chitose.htm",
      "address": "",
      "lat": 42.8343194444444,
      "lng": 141.667297222222,
      "source": "P-WORLD",
      "is_grand_open": false,
      "open_date": "",
      "machines": {
        "total": 0,
        "pachinko": 0,
        "pachinko_4en": 0,
        "pachinko_1en": 0,
        "slot": 0,
        "slot_20en": 0,
        "slot_5en": 0
      },
      "pref": "北海道"
    },
    {
      "name": "ダイナム北斗七重浜店",
      "url": "https://www.p-world.co.jp/hokkaido/dynam-kamiiso.htm",
      "address": "",
      "lat": 41.8186227777778,
      "lng": 140.699806388889,
      "source": "P-WORLD",
      "is_grand_open": false,
      "open_date": "",
      "machines": {
        "total": 0,
        "pachinko": 0,
        "pachinko_4en": 0,
        "pachinko_1en": 0,
        "slot": 0,
        "slot_20en": 0,
        "slot_5en": 0
      },
      "pref": "北海道"
    },
    {
      "name": "ダイナム江別店",
      "url": "https://www.p-world.co.jp/hokkaido/dynam-ebetu.htm",
      "address": "",
      "lat": 43.0826063888889,
      "lng": 141.520396388889,
      "source": "P-WORLD",
      "is_grand_open": false,
      "open_date": "",
      "machines": {
        "total": 0,
        "pachinko": 0,
        "pachinko_4en": 0,
        "pachinko_1en": 0,
        "slot": 0,
        "slot_20en": 0,
        "slot_5en": 0
      },
      "pref": "北海道"
    },
    {
      "name": "メガエムズ１西岡店",
      "url": "https://www.p-world.co.jp/hokkaido/megams.htm",
      "address": "",
      "lat": 43.0196322222222,
      "lng": 141.386645555556,
      "source": "P-WORLD",
      "is_grand_open": false,
      "open_date": "",
      "machines": {
        "total": 0,
        "pachinko": 0,
        "pachinko_4en": 0,
        "pachinko_1en": 0,
        "slot": 0,
        "slot_20en": 0,
        "slot_5en": 0
      },
      "pref": "北海道"
    },
    {
      "name": "ロイヤル栗山店",
      "url": "https://www.p-world.co.jp/hokkaido/royal-kuriyama.htm",
      "address": "",
      "lat": 43.0507838904864,
      "lng": 141.801437993976,
      "source": "P-WORLD",
      "is_grand_open": false,
      "open_date": "",
      "machines": {
        "total": 0,
        "pachinko": 0,
        "pachinko_4en": 0,
        "pachinko_1en": 0,
        "slot": 0,
        "slot_20en": 0,
        "slot_5en": 0
      },
      "pref": "北海道"
    },
    {
      "name": "ライジング八雲",
      "url": "https://www.p-world.co.jp/hokkaido/rising-yakumo.htm",
      "address": "",
      "lat": 42.2456723878235,
      "lng": 140.289730107745,
      "source": "P-WORLD",
      "is_grand_open": false,
      "open_date": "",
      "machines": {
        "total": 0,
        "pachinko": 0,
        "pachinko_4en": 0,
        "pachinko_1en": 0,
        "slot": 0,
        "slot_20en": 0,
        "slot_5en": 0
      },
      "pref": "北海道"
    },
    {
      "name": "アーリーバード　春採店",
      "url": "https://www.p-world.co.jp/hokkaido/earlybirdharutori111.htm",
      "address": "",
      "lat": 42.9673985870537,
      "lng": 144.406505772587,
      "source": "P-WORLD",
      "is_grand_open": false,
      "open_date": "",
      "machines": {
        "total": 0,
        "pachinko": 0,
        "pachinko_4en": 0,
        "pachinko_1en": 0,
        "slot": 0,
        "slot_20en": 0,
        "slot_5en": 0
      },
      "pref": "北海道"
    },
    {
      "name": "遊び工房　恵庭店",
      "url": "https://www.p-world.co.jp/hokkaido/asobikobo-eniwa.htm",
      "address": "",
      "lat": 42.9003805555556,
      "lng": 141.579188888889,
      "source": "P-WORLD",
      "is_grand_open": false,
      "open_date": "",
      "machines": {
        "total": 0,
        "pachinko": 0,
        "pachinko_4en": 0,
        "pachinko_1en": 0,
        "slot": 0,
        "slot_20en": 0,
        "slot_5en": 0
      },
      "pref": "北海道"
    },
    {
      "name": "ケイオー湯川店",
      "url": "https://www.p-world.co.jp/hokkaido/keio-hakodate.htm",
      "address": "",
      "lat": 41.7780638888889,
      "lng": 140.786905555556,
      "source": "P-WORLD",
      "is_grand_open": false,
      "open_date": "",
      "machines": {
        "total": 0,
        "pachinko": 0,
        "pachinko_4en": 0,
        "pachinko_1en": 0,
        "slot": 0,
        "slot_20en": 0,
        "slot_5en": 0
      },
      "pref": "北海道"
    },
    {
      "name": "パーラーゴールデンゴッド",
      "url": "https://www.p-world.co.jp/hokkaido/golden-god.htm",
      "address": "",
      "lat": 42.5165527777778,
      "lng": 142.027858333333,
      "source": "P-WORLD",
      "is_grand_open": false,
      "open_date": "",
      "machines": {
        "total": 0,
        "pachinko": 0,
        "pachinko_4en": 0,
        "pachinko_1en": 0,
        "slot": 0,
        "slot_20en": 0,
        "slot_5en": 0
      },
      "pref": "北海道"
    },
    {
      "name": "スマイル枝幸",
      "url": "https://www.p-world.co.jp/hokkaido/smile-esashi.htm",
      "address": "",
      "lat": 44.9185861111111,
      "lng": 142.586141666667,
      "source": "P-WORLD",
      "is_grand_open": false,
      "open_date": "",
      "machines": {
        "total": 0,
        "pachinko": 0,
        "pachinko_4en": 0,
        "pachinko_1en": 0,
        "slot": 0,
        "slot_20en": 0,
        "slot_5en": 0
      },
      "pref": "北海道"
    },
    {
      "name": "マルハン室蘭店",
      "url": "https://www.p-world.co.jp/hokkaido/maruhan-muroran.htm",
      "address": "",
      "lat": 42.3502136111111,
      "lng": 141.009291944444,
      "source": "P-WORLD",
      "is_grand_open": false,
      "open_date": "",
      "machines": {
        "total": 0,
        "pachinko": 0,
        "pachinko_4en": 0,
        "pachinko_1en": 0,
        "slot": 0,
        "slot_20en": 0,
        "slot_5en": 0
      },
      "pref": "北海道"
    },
    {
      "name": "パチンコパーラー東和　北見店",
      "url": "https://www.p-world.co.jp/hokkaido/towa-kitami.htm",
      "address": "",
      "lat": 43.7972969444444,
      "lng": 143.876710833333,
      "source": "P-WORLD",
      "is_grand_open": false,
      "open_date": "",
      "machines": {
        "total": 0,
        "pachinko": 0,
        "pachinko_4en": 0,
        "pachinko_1en": 0,
        "slot": 0,
        "slot_20en": 0,
        "slot_5en": 0
      },
      "pref": "北海道"
    },
    {
      "name": "GOD　SLOT　PARK",
      "url": "https://www.p-world.co.jp/hokkaido/god-slot-park.htm",
      "address": "",
      "lat": 43.0517977777778,
      "lng": 144.845536666667,
      "source": "P-WORLD",
      "is_grand_open": false,
      "open_date": "",
      "machines": {
        "total": 0,
        "pachinko": 0,
        "pachinko_4en": 0,
        "pachinko_1en": 0,
        "slot": 0,
        "slot_20en": 0,
        "slot_5en": 0
      },
      "pref": "北海道"
    },
    {
      "name": "Ｍ’ｓ６６６菊水店",
      "url": "https://www.p-world.co.jp/hokkaido/ms666-kikusui.htm",
      "address": "",
      "lat": 43.0528227888494,
      "lng": 141.384482665144,
      "source": "P-WORLD",
      "is_grand_open": false,
      "open_date": "",
      "machines": {
        "total": 0,
        "pachinko": 0,
        "pachinko_4en": 0,
        "pachinko_1en": 0,
        "slot": 0,
        "slot_20en": 0,
        "slot_5en": 0
      },
      "pref": "北海道"
    },
    {
      "name": "マルハン稚内大黒店",
      "url": "https://www.p-world.co.jp/hokkaido/maruhan-w-daikoku.htm",
      "address": "",
      "lat": 45.3974119444444,
      "lng": 141.688862777778,
      "source": "P-WORLD",
      "is_grand_open": false,
      "open_date": "",
      "machines": {
        "total": 0,
        "pachinko": 0,
        "pachinko_4en": 0,
        "pachinko_1en": 0,
        "slot": 0,
        "slot_20en": 0,
        "slot_5en": 0
      },
      "pref": "北海道"
    },
    {
      "name": "パーラー大和　キング",
      "url": "https://www.p-world.co.jp/hokkaido/daiwa-king.htm",
      "address": "",
      "lat": 43.0443866102816,
      "lng": 141.400312991334,
      "source": "P-WORLD",
      "is_grand_open": false,
      "open_date": "",
      "machines": {
        "total": 0,
        "pachinko": 0,
        "pachinko_4en": 0,
        "pachinko_1en": 0,
        "slot": 0,
        "slot_20en": 0,
        "slot_5en": 0
      },
      "pref": "北海道"
    },
    {
      "name": "ダイナム北海道岩見沢南店",
      "url": "https://www.p-world.co.jp/hokkaido/dynam-iwamizawa-s.htm",
      "address": "",
      "lat": 43.1765902777778,
      "lng": 141.763710555556,
      "source": "P-WORLD",
      "is_grand_open": false,
      "open_date": "",
      "machines": {
        "total": 0,
        "pachinko": 0,
        "pachinko_4en": 0,
        "pachinko_1en": 0,
        "slot": 0,
        "slot_20en": 0,
        "slot_5en": 0
      },
      "pref": "北海道"
    },
    {
      "name": "ダイナム登別店",
      "url": "https://www.p-world.co.jp/hokkaido/dynam-noboribetu.htm",
      "address": "",
      "lat": 42.3845383333333,
      "lng": 141.084040277778,
      "source": "P-WORLD",
      "is_grand_open": false,
      "open_date": "",
      "machines": {
        "total": 0,
        "pachinko": 0,
        "pachinko_4en": 0,
        "pachinko_1en": 0,
        "slot": 0,
        "slot_20en": 0,
        "slot_5en": 0
      },
      "pref": "北海道"
    },
    {
      "name": "ダイナム北海道北広島店",
      "url": "https://www.p-world.co.jp/hokkaido/dynam-kitahiroshima.htm",
      "address": "",
      "lat": 42.9795472222222,
      "lng": 141.556098333333,
      "source": "P-WORLD",
      "is_grand_open": false,
      "open_date": "",
      "machines": {
        "total": 0,
        "pachinko": 0,
        "pachinko_4en": 0,
        "pachinko_1en": 0,
        "slot": 0,
        "slot_20en": 0,
        "slot_5en": 0
      },
      "pref": "北海道"
    },
    {
      "name": "ダイナム苫小牧東店",
      "url": "https://www.p-world.co.jp/hokkaido/dynam-tomakomai-e.htm",
      "address": "",
      "lat": 42.65906,
      "lng": 141.654170277778,
      "source": "P-WORLD",
      "is_grand_open": false,
      "open_date": "",
      "machines": {
        "total": 0,
        "pachinko": 0,
        "pachinko_4en": 0,
        "pachinko_1en": 0,
        "slot": 0,
        "slot_20en": 0,
        "slot_5en": 0
      },
      "pref": "北海道"
    },
    {
      "name": "ダイナム旭川店",
      "url": "https://www.p-world.co.jp/hokkaido/dynam-asahikawa.htm",
      "address": "",
      "lat": 43.7927605183795,
      "lng": 142.415309620609,
      "source": "P-WORLD",
      "is_grand_open": false,
      "open_date": "",
      "machines": {
        "total": 0,
        "pachinko": 0,
        "pachinko_4en": 0,
        "pachinko_1en": 0,
        "slot": 0,
        "slot_20en": 0,
        "slot_5en": 0
      },
      "pref": "北海道"
    },
    {
      "name": "ダイナム岩見沢店",
      "url": "https://www.p-world.co.jp/hokkaido/dynam-iwamizawa.htm",
      "address": "",
      "lat": 43.2201063888889,
      "lng": 141.7923325,
      "source": "P-WORLD",
      "is_grand_open": false,
      "open_date": "",
      "machines": {
        "total": 0,
        "pachinko": 0,
        "pachinko_4en": 0,
        "pachinko_1en": 0,
        "slot": 0,
        "slot_20en": 0,
        "slot_5en": 0
      },
      "pref": "北海道"
    },
    {
      "name": "ダイナム釧路貝塚店",
      "url": "https://www.p-world.co.jp/hokkaido/dynam-kushirokaiduka.htm",
      "address": "",
      "lat": 42.994935,
      "lng": 144.412977222222,
      "source": "P-WORLD",
      "is_grand_open": false,
      "open_date": "",
      "machines": {
        "total": 0,
        "pachinko": 0,
        "pachinko_4en": 0,
        "pachinko_1en": 0,
        "slot": 0,
        "slot_20en": 0,
        "slot_5en": 0
      },
      "pref": "北海道"
    },
    {
      "name": "ダイナム手稲店",
      "url": "https://www.p-world.co.jp/hokkaido/dynam-teine.htm",
      "address": "",
      "lat": 43.1211666666667,
      "lng": 141.226416666667,
      "source": "P-WORLD",
      "is_grand_open": false,
      "open_date": "",
      "machines": {
        "total": 0,
        "pachinko": 0,
        "pachinko_4en": 0,
        "pachinko_1en": 0,
        "slot": 0,
        "slot_20en": 0,
        "slot_5en": 0
      },
      "pref": "北海道"
    },
    {
      "name": "ジャムフレンドクラブエースむつ",
      "url": "https://www.p-world.co.jp/aomori/jamamutsu.htm",
      "address": "",
      "lat": 41.2967416666667,
      "lng": 141.192955555556,
      "source": "P-WORLD",
      "is_grand_open": false,
      "open_date": "",
      "machines": {
        "total": 0,
        "pachinko": 0,
        "pachinko_4en": 0,
        "pachinko_1en": 0,
        "slot": 0,
        "slot_20en": 0,
        "slot_5en": 0
      },
      "pref": "青森"
    },
    {
      "name": "21SEIKI　八戸西",
      "url": "https://www.p-world.co.jp/aomori/hachinohenishi.htm",
      "address": "",
      "lat": 40.5095993402252,
      "lng": 141.451943904237,
      "source": "P-WORLD",
      "is_grand_open": false,
      "open_date": "",
      "machines": {
        "total": 0,
        "pachinko": 0,
        "pachinko_4en": 0,
        "pachinko_1en": 0,
        "slot": 0,
        "slot_20en": 0,
        "slot_5en": 0
      },
      "pref": "青森"
    },
    {
      "name": "ジャムフレンドクラブ黒石",
      "url": "https://www.p-world.co.jp/aomori/jamfriendclub-kuro.htm",
      "address": "",
      "lat": 40.6247053085811,
      "lng": 140.600946438281,
      "source": "P-WORLD",
      "is_grand_open": false,
      "open_date": "",
      "machines": {
        "total": 0,
        "pachinko": 0,
        "pachinko_4en": 0,
        "pachinko_1en": 0,
        "slot": 0,
        "slot_20en": 0,
        "slot_5en": 0
      },
      "pref": "青森"
    },
    {
      "name": "ジャムフレンド弘前",
      "url": "https://www.p-world.co.jp/aomori/jamfriend-hirosaki.htm",
      "address": "",
      "lat": 40.6035651006801,
      "lng": 140.489105478285,
      "source": "P-WORLD",
      "is_grand_open": false,
      "open_date": "",
      "machines": {
        "total": 0,
        "pachinko": 0,
        "pachinko_4en": 0,
        "pachinko_1en": 0,
        "slot": 0,
        "slot_20en": 0,
        "slot_5en": 0
      },
      "pref": "青森"
    },
    {
      "name": "ダイナム青森浪岡店",
      "url": "https://www.p-world.co.jp/aomori/dynam-namioka.htm",
      "address": "",
      "lat": 40.7023538982904,
      "lng": 140.578838576619,
      "source": "P-WORLD",
      "is_grand_open": false,
      "open_date": "",
      "machines": {
        "total": 0,
        "pachinko": 0,
        "pachinko_4en": 0,
        "pachinko_1en": 0,
        "slot": 0,
        "slot_20en": 0,
        "slot_5en": 0
      },
      "pref": "青森"
    },
    {
      "name": "ダイナム黒石店",
      "url": "https://www.p-world.co.jp/aomori/dynam-kuroisi.htm",
      "address": "",
      "lat": 40.6231008333333,
      "lng": 140.599531388889,
      "source": "P-WORLD",
      "is_grand_open": false,
      "open_date": "",
      "machines": {
        "total": 0,
        "pachinko": 0,
        "pachinko_4en": 0,
        "pachinko_1en": 0,
        "slot": 0,
        "slot_20en": 0,
        "slot_5en": 0
      },
      "pref": "青森"
    },
    {
      "name": "ダイナムつがる柏店",
      "url": "https://www.p-world.co.jp/aomori/dynam-tsugarukashiwa.htm",
      "address": "",
      "lat": 40.7995508333333,
      "lng": 140.405826388889,
      "source": "P-WORLD",
      "is_grand_open": false,
      "open_date": "",
      "machines": {
        "total": 0,
        "pachinko": 0,
        "pachinko_4en": 0,
        "pachinko_1en": 0,
        "slot": 0,
        "slot_20en": 0,
        "slot_5en": 0
      },
      "pref": "青森"
    },
    {
      "name": "ガイア五所川原スロット館",
      "url": "https://www.p-world.co.jp/aomori/gaia-goshogawara.htm",
      "address": "",
      "lat": 40.7972127777778,
      "lng": 140.462444444444,
      "source": "P-WORLD",
      "is_grand_open": false,
      "open_date": "",
      "machines": {
        "total": 0,
        "pachinko": 0,
        "pachinko_4en": 0,
        "pachinko_1en": 0,
        "slot": 0,
        "slot_20en": 0,
        "slot_5en": 0
      },
      "pref": "青森"
    },
    {
      "name": "大東パチンコ",
      "url": "https://www.p-world.co.jp/aomori/daito7.htm",
      "address": "",
      "lat": 40.5169666666667,
      "lng": 141.499575,
      "source": "P-WORLD",
      "is_grand_open": false,
      "open_date": "",
      "machines": {
        "total": 0,
        "pachinko": 0,
        "pachinko_4en": 0,
        "pachinko_1en": 0,
        "slot": 0,
        "slot_20en": 0,
        "slot_5en": 0
      },
      "pref": "青森"
    },
    {
      "name": "ジャムフレンド五所川原",
      "url": "https://www.p-world.co.jp/aomori/jx5.htm",
      "address": "",
      "lat": 40.7965124317752,
      "lng": 140.46634406947,
      "source": "P-WORLD",
      "is_grand_open": false,
      "open_date": "",
      "machines": {
        "total": 0,
        "pachinko": 0,
        "pachinko_4en": 0,
        "pachinko_1en": 0,
        "slot": 0,
        "slot_20en": 0,
        "slot_5en": 0
      },
      "pref": "青森"
    },
    {
      "name": "北大江陽店",
      "url": "https://www.p-world.co.jp/aomori/hokudaikouyou.htm",
      "address": "",
      "lat": 40.5226388888889,
      "lng": 141.504888888889,
      "source": "P-WORLD",
      "is_grand_open": false,
      "open_date": "",
      "machines": {
        "total": 0,
        "pachinko": 0,
        "pachinko_4en": 0,
        "pachinko_1en": 0,
        "slot": 0,
        "slot_20en": 0,
        "slot_5en": 0
      },
      "pref": "青森"
    },
    {
      "name": "朝日土手町店",
      "url": "https://www.p-world.co.jp/aomori/asahi-dotemachi.htm",
      "address": "",
      "lat": 40.5995,
      "lng": 140.474555555556,
      "source": "P-WORLD",
      "is_grand_open": false,
      "open_date": "",
      "machines": {
        "total": 0,
        "pachinko": 0,
        "pachinko_4en": 0,
        "pachinko_1en": 0,
        "slot": 0,
        "slot_20en": 0,
        "slot_5en": 0
      },
      "pref": "青森"
    },
    {
      "name": "ダイナムむつ店",
      "url": "https://www.p-world.co.jp/aomori/dynam-mutu.htm",
      "address": "",
      "lat": 41.2628841666667,
      "lng": 141.218083888889,
      "source": "P-WORLD",
      "is_grand_open": false,
      "open_date": "",
      "machines": {
        "total": 0,
        "pachinko": 0,
        "pachinko_4en": 0,
        "pachinko_1en": 0,
        "slot": 0,
        "slot_20en": 0,
        "slot_5en": 0
      },
      "pref": "青森"
    },
    {
      "name": "ダイナム十和田店",
      "url": "https://www.p-world.co.jp/aomori/dynam-towada.htm",
      "address": "",
      "lat": 40.6445719444444,
      "lng": 141.202093055556,
      "source": "P-WORLD",
      "is_grand_open": false,
      "open_date": "",
      "machines": {
        "total": 0,
        "pachinko": 0,
        "pachinko_4en": 0,
        "pachinko_1en": 0,
        "slot": 0,
        "slot_20en": 0,
        "slot_5en": 0
      },
      "pref": "青森"
    },
    {
      "name": "北大野辺地店",
      "url": "https://www.p-world.co.jp/aomori/hokudai-n.htm",
      "address": "",
      "lat": 40.8646775,
      "lng": 141.115017222222,
      "source": "P-WORLD",
      "is_grand_open": false,
      "open_date": "",
      "machines": {
        "total": 0,
        "pachinko": 0,
        "pachinko_4en": 0,
        "pachinko_1en": 0,
        "slot": 0,
        "slot_20en": 0,
        "slot_5en": 0
      },
      "pref": "青森"
    },
    {
      "name": "パーラーＢＯＳＳ",
      "url": "https://www.p-world.co.jp/aomori/boss.htm",
      "address": "",
      "lat": 41.28975,
      "lng": 141.200194444444,
      "source": "P-WORLD",
      "is_grand_open": false,
      "open_date": "",
      "machines": {
        "total": 0,
        "pachinko": 0,
        "pachinko_4en": 0,
        "pachinko_1en": 0,
        "slot": 0,
        "slot_20en": 0,
        "slot_5en": 0
      },
      "pref": "青森"
    },
    {
      "name": "ニュー北大八戸店",
      "url": "https://www.p-world.co.jp/aomori/nyu-hokudai.htm",
      "address": "",
      "lat": 40.5077910587314,
      "lng": 141.451263364494,
      "source": "P-WORLD",
      "is_grand_open": false,
      "open_date": "",
      "machines": {
        "total": 0,
        "pachinko": 0,
        "pachinko_4en": 0,
        "pachinko_1en": 0,
        "slot": 0,
        "slot_20en": 0,
        "slot_5en": 0
      },
      "pref": "青森"
    },
    {
      "name": "北大十和田店",
      "url": "https://www.p-world.co.jp/aomori/hokudai-towada.htm",
      "address": "",
      "lat": 40.6135833333333,
      "lng": 141.220888888889,
      "source": "P-WORLD",
      "is_grand_open": false,
      "open_date": "",
      "machines": {
        "total": 0,
        "pachinko": 0,
        "pachinko_4en": 0,
        "pachinko_1en": 0,
        "slot": 0,
        "slot_20en": 0,
        "slot_5en": 0
      },
      "pref": "青森"
    },
    {
      "name": "ＪＡＭ・ＦＲＩＥＮＤ・ＣＬＵＢ上北",
      "url": "https://www.p-world.co.jp/aomori/jamfriendclub-kamikita.htm",
      "address": "",
      "lat": 40.7281583333333,
      "lng": 141.257513888889,
      "source": "P-WORLD",
      "is_grand_open": false,
      "open_date": "",
      "machines": {
        "total": 0,
        "pachinko": 0,
        "pachinko_4en": 0,
        "pachinko_1en": 0,
        "slot": 0,
        "slot_20en": 0,
        "slot_5en": 0
      },
      "pref": "青森"
    },
    {
      "name": "ダイナム岩手紫波店",
      "url": "https://www.p-world.co.jp/iwate/dynam-shiwa.htm",
      "address": "",
      "lat": 39.534935,
      "lng": 141.173334444444,
      "source": "P-WORLD",
      "is_grand_open": false,
      "open_date": "",
      "machines": {
        "total": 0,
        "pachinko": 0,
        "pachinko_4en": 0,
        "pachinko_1en": 0,
        "slot": 0,
        "slot_20en": 0,
        "slot_5en": 0
      },
      "pref": "岩手"
    },
    {
      "name": "ダイナム岩手前沢店",
      "url": "https://www.p-world.co.jp/iwate/dynam-maesawa.htm",
      "address": "",
      "lat": 39.0484444444444,
      "lng": 141.13505,
      "source": "P-WORLD",
      "is_grand_open": false,
      "open_date": "",
      "machines": {
        "total": 0,
        "pachinko": 0,
        "pachinko_4en": 0,
        "pachinko_1en": 0,
        "slot": 0,
        "slot_20en": 0,
        "slot_5en": 0
      },
      "pref": "岩手"
    },
    {
      "name": "ダイナム岩手大船渡店",
      "url": "https://www.p-world.co.jp/iwate/dynam-ofunato.htm",
      "address": "",
      "lat": 39.1137544698742,
      "lng": 141.721096304122,
      "source": "P-WORLD",
      "is_grand_open": false,
      "open_date": "",
      "machines": {
        "total": 0,
        "pachinko": 0,
        "pachinko_4en": 0,
        "pachinko_1en": 0,
        "slot": 0,
        "slot_20en": 0,
        "slot_5en": 0
      },
      "pref": "岩手"
    },
    {
      "name": "ダイナム花巻店",
      "url": "https://www.p-world.co.jp/iwate/dynam-hanamaki.htm",
      "address": "",
      "lat": 39.4346908333333,
      "lng": 141.133161388889,
      "source": "P-WORLD",
      "is_grand_open": false,
      "open_date": "",
      "machines": {
        "total": 0,
        "pachinko": 0,
        "pachinko_4en": 0,
        "pachinko_1en": 0,
        "slot": 0,
        "slot_20en": 0,
        "slot_5en": 0
      },
      "pref": "岩手"
    },
    {
      "name": "ＷＩＮＳ北上ライト館",
      "url": "https://www.p-world.co.jp/iwate/wins-newkouraku.htm",
      "address": "",
      "lat": 39.3102946669164,
      "lng": 141.11521173994,
      "source": "P-WORLD",
      "is_grand_open": false,
      "open_date": "",
      "machines": {
        "total": 0,
        "pachinko": 0,
        "pachinko_4en": 0,
        "pachinko_1en": 0,
        "slot": 0,
        "slot_20en": 0,
        "slot_5en": 0
      },
      "pref": "岩手"
    },
    {
      "name": "カネマン大船渡",
      "url": "https://www.p-world.co.jp/iwate/kaneman-ofunato.htm",
      "address": "",
      "lat": 39.0708108333333,
      "lng": 141.7217675,
      "source": "P-WORLD",
      "is_grand_open": false,
      "open_date": "",
      "machines": {
        "total": 0,
        "pachinko": 0,
        "pachinko_4en": 0,
        "pachinko_1en": 0,
        "slot": 0,
        "slot_20en": 0,
        "slot_5en": 0
      },
      "pref": "岩手"
    },
    {
      "name": "ユニオン　ザ・プライム二戸",
      "url": "https://www.p-world.co.jp/iwate/union-ninohe.htm",
      "address": "",
      "lat": 40.3005189532204,
      "lng": 141.304646149273,
      "source": "P-WORLD",
      "is_grand_open": false,
      "open_date": "",
      "machines": {
        "total": 0,
        "pachinko": 0,
        "pachinko_4en": 0,
        "pachinko_1en": 0,
        "slot": 0,
        "slot_20en": 0,
        "slot_5en": 0
      },
      "pref": "岩手"
    },
    {
      "name": "前沢　ニューボンボン",
      "url": "https://www.p-world.co.jp/iwate/new-bonbon.htm",
      "address": "",
      "lat": 39.0440069586202,
      "lng": 141.134206260161,
      "source": "P-WORLD",
      "is_grand_open": false,
      "open_date": "",
      "machines": {
        "total": 0,
        "pachinko": 0,
        "pachinko_4en": 0,
        "pachinko_1en": 0,
        "slot": 0,
        "slot_20en": 0,
        "slot_5en": 0
      },
      "pref": "岩手"
    },
    {
      "name": "カネマンルート４５",
      "url": "https://www.p-world.co.jp/iwate/route-45.htm",
      "address": "",
      "lat": 39.3528138888889,
      "lng": 141.896747222222,
      "source": "P-WORLD",
      "is_grand_open": false,
      "open_date": "",
      "machines": {
        "total": 0,
        "pachinko": 0,
        "pachinko_4en": 0,
        "pachinko_1en": 0,
        "slot": 0,
        "slot_20en": 0,
        "slot_5en": 0
      },
      "pref": "岩手"
    },
    {
      "name": "クエスト青山",
      "url": "https://www.p-world.co.jp/iwate/ap-quest.htm",
      "address": "",
      "lat": 39.7258876717803,
      "lng": 141.111683176375,
      "source": "P-WORLD",
      "is_grand_open": false,
      "open_date": "",
      "machines": {
        "total": 0,
        "pachinko": 0,
        "pachinko_4en": 0,
        "pachinko_1en": 0,
        "slot": 0,
        "slot_20en": 0,
        "slot_5en": 0
      },
      "pref": "岩手"
    },